Data_Year,ID,Property_Name,Address,Energy_Rating,Property_Type,Floor_Area,Water_Use (kGal),Electricity_Use(kBtu),Natural_Gas_Use(kBtu),Total_GHG_Emissions(Metric Tons CO2e),GHG_Intensity(kg CO2e/sq ft),Latitude,Longitude,Location,Wards,Community_Area
2020,159898,Hyde Park Tower,5140 S Hyde Park Blvd,1.0,Multifamily Housing,143925,1307.6,4886566.9,21278243.9,1892.8,13.2,41.80133,-87.58475,"(41.80133, -87.58475)",33,8
2020,159897,Shoreland Apartments,5454 S Shore Dr,4.0,Multifamily Housing,638697,6183.8,10016192.7,12563599.5,2230.5,3.5,41.796234,-87.581505,"(41.796234, -87.581505)",33,8
2020,159896,Regents Park,5020 - 5050 S Lake Shore Dr,2.0,Multifamily Housing,1460101,6609.4,29420994.3,95443598.7,9661.2,6.6,41.80367,-87.58485,"(41.80367, -87.58485)",33,5
2020,159418,"Third Prairie Shores, LLC",3001 S King Dr,2.5,Multifamily Housing,289267,1456.0,4881229.8,26338718,2160.8,7.5,41.839203,-87.616615,"(41.839203, -87.616615)",10,1
2016,103849,Bicycle Station Lofts Condominium Association (1632-36 S. Indiana Ave.),1632 1636 S INDIANA AVE,24,Multifamily Housing,59040,2752.8,1265732.6,2137978.9,346.9,5.9,41.845505,-87.630554,"(41.845505, -87.630554)",48,35
2020,251772,"Jewel Osco, 03224-Irving Park & Narraganset",6430 W Irving Park Rd,2.5,Supermarket/Grocery Store,57498,6030.8,8472126,4587599.8,1565.9,27.2,41.922012,-87.65462,"(41.922012, -87.65462)",19,17
2020,253951,18th Street Lofts,1801 S Michigan Ave,4.0,Multifamily Housing,93675,1643.2,1342523,2116535.5,321.9,4.8,41.845505,-87.630554,"(41.845505, -87.630554)",48,35
2020,251773,"Jewel Osco, 03296-Foster & Harlem",7342 W Foster Ave,3.0,Supermarket/Grocery Store,77255,225.8,8539260.2,6724400,1689.9,21.9,41.910374,-87.630646,"(41.910374, -87.630646)",29,36
2017,173715,2738 N. Pine Grove,2738  N PINE GROVE AVE,60,Multifamily Housing,103203,6445.3,1808367,5642447,634.1,6.1,41.975525,-87.69722,"(41.975525, -87.69722)",34,68
2020,251774,Catholic Charities Saint Alibe - (Faith Apartments),1244 East 93rd Street,3.0,Multifamily Housing,192927,7395.7,2260052.7,8547151.8,806.7,4.5,41.725098,-87.65454,"(41.725098, -87.65454)",13,72
2016,253952,Catherine Courts Condominium Association of Chicago (8439-8503 W. Catherine Ave),8439-8503 W Catherine Ave,35,Multifamily Housing,149754,4997.6,2220130.4,8452906.2,858.2,5.7,41.947426,-87.642685,"(41.947426, -87.642685)",29,36
2020,251770,U.S. Cellular Plaza - 8420 _ Goby LLC,8420 W Bryn Mawr Ave,4.0,Office,212651,8018.4,991257.6,3420406.0,154.7,0.7,41.684685,-87.65547,"(41.684685, -87.65547)",29,75
2016,173712,1155 West Armitage Condominium Association,1153 1155 W ARMITAGE AVE,43,Multifamily Housing,94200,7422.5,1274760,2090760.1,346,3.7,41.802303,-87.6025,"(41.802303, -87.6025)",34,68
2020,251771,1333 N Kingsbury,1333 N Kingsbury,4.0,Office,126727,7066.2,3957005.9,4220184.3,841.7,8,41.906017,-87.64947,"(41.906017, -87.64947)",46,37
2020,253959,St. Paul Lofts Condominium Association,2333 W Saint Paul Ave,4.0,Multifamily Housing,105718,6090.2,1965390.5,3383953.5,486.5,4.6,41.913387,-87.68625,"(41.913387, -87.68625)",40,25
2020,253955,550 W. Fulton Condominium Association,550 W Fulton,4.0,Multifamily Housing,76037,1897.3,1231906,2232833.7,352.6,5.5,41.88321,-87.64337,"(41.88321, -87.64337)",36,29
2020,124308,Walmart Supercenter #5965,10900 S Doty Ave,1.0,Wholesale Club/Supercenter,155765,5269.7,12796546.3,6816824.9,2359.2,15.1,41.871033,-87.73349,"(41.871033, -87.73349)",43,47
2020,101682,8750 West Bryn Mawr Ave - Triangle Plaza,8750 W Bryn Mawr Ave,4.0,Office,1286867,458.7,32945463.8,89725.7,5146.5,6.7,41.87963,-87.640396,"(41.87963, -87.640396)",29,75
2020,241989,30 E Elm Condo Association,30 E ELM ST,1.0,Multifamily Housing,104980,8388.3,2904174.7,9768238.3,972.1,10.9,42.01036,-87.6683,"(42.01036, -87.6683)",11,37
2018,173708,2756-64 N. Pine Grove Ave.,2756 2760 N PINE GROVE AVE,1.5,Multifamily Housing,133560,6946,1910423.2,12550647.6,984.5,7.4,41.922012,-87.65462,"(41.922012, -87.65462)",34,68
2018,173702,Ambassador Hotel,1301  N STATE PKWY,1.0,Hotel,188600,82,12058905.4,14666945.6,2785.2,14.8,41.90375,-87.63559,"(41.90375, -87.63559)",46,37
2020,251783,Our Lady of Victory Parish,5212 W Agatite,0.0,Other,120233,9361.4,310642.4,5565634.0,1761.1,60.0,41.961826,-87.75825,"(41.961826, -87.75825)",19,15
2020,253962,Moser Building Condominium Association,621 S Plymouth Ct,4.0,Multifamily Housing,144649,7293.7,1686705.1,3747464.7,462.3,3.2,41.86842,-87.62414,"(41.86842, -87.62414)",10,38
2020,251784,Quigley Pastoral Center-Quigley,835 N Rush St,3.0,Office,84100,8570.6,3351142.2,4527090.1,763.5,9.1,41.897778,-87.62605,"(41.897778, -87.62605)",36,37
2020,251301,Lincoln Park Tower Condominium Association,1960 N Lincoln Park West,2.5,Multifamily Housing,413860,6292.8,7640222,26942598.3,2623.5,7.9,41.918056,-87.63701,"(41.918056, -87.63701)",34,68
2020,251785,Saint Alphonsus Parish,1439 W Wellington Ave,4.0,Other,187668,8559.3,1045512.9,6687332.9,518.4,2.8,41.935806,-87.66571,"(41.935806, -87.66571)",40,57
2020,251786,Saint Clement School,642 W Deming Pl,3.0,Other,115276,8661.9,2048285.6,5573273,615.7,5.3,41.88712,-87.656815,"(41.88712, -87.656815)",34,68
2020,253963,Montclare Senior Residences of Avalon Park,1210  E 78th St,4.0,Multifamily Housing,137038,8077.0,1842814.4,4169748.4,509.1,5,41.744015,-87.6055,"(41.744015, -87.6055)",35,40
2020,121264,Chicago Theological Seminary,1407 E 60th St,2.0,College/University,80489,7891.8,2262510.8,34620,880.8,10.9,41.786045,-87.59124,"(41.786045, -87.59124)",4,9
2020,251780,Holy Name Cathedral Parish,735 N State St,3.0,Other,193226,1298.6,5284944.1,12488086.3,1488.1,7.7,41.89583,-87.62813,"(41.89583, -87.62813)",36,37
2020,101674,Presidents Plaza 2,8700 W Bryn Mawr Ave,4.0,Office,953318,345.7,21218670.6,221460.1,3323.3,7.5,41.98172,-87.84446,"(41.98172, -87.84446)",29,75
2017,100346,2609 W. Belmont Apartments,2609 W BELMONT AVE,68,Multifamily Housing,87196,6638.5,1533291,3889053,490.1,5.6,41.94672,-87.70319,"(41.94672, -87.70319)",20,16
2020,159411,1130 S Michigan Ave,1130 S Michigan Ave,2.5,Multifamily Housing,810159,7719.5,15394169.5,40738355.7,4566.4,6.4,41.889732,-87.63612,"(41.889732, -87.63612)",10,38
2020,253966,Greenview Place,1501 W Melrose St,4.0,Senior Living Community,130428,82.4,2942923.8,3698282.7,655.7,7.9,41.939857,-87.65846,"(41.939857, -87.65846)",25,57
2020,159894,Oglesby Towers,6700 S OGLESBY AVE,2.0,Multifamily Housing,245000,9762.4,3308104.5,18140296.6,1479.8,6.9,41.868633,-87.627304,"(41.868633, -87.627304)",33,39
2020,101679,Presidents Plaza 1,8600 W Bryn Mawr Ave,4.0,Office,729676,6283.7,23423209,224953.4,3667.6,8.8,41.982925,-87.84222,"(41.982925, -87.84222)",29,75
2020,251789,Saint Hedwig Parish,2226 N Hoyne Ave,3.0,Other,100888,2343.0,938204,8867909.7,617.4,6.1,41.922253,-87.68068,"(41.922253, -87.68068)",40,23
2016,253968,Kilpatrick Renaissance,4655 W Berteau Ave,96,Multifamily Housing,79246,1022.8,3044880.7,2310821.1,684,8.6,41.94617,-87.746544,"(41.94617, -87.746544)",21,15
2020,159892,Promontory Apartments,5530 S SHORE DR,3.5,Multifamily Housing,180351,9896.7,3265741.3,13586599.8,1231.3,6.8,41.871033,-87.73349,"(41.871033, -87.73349)",33,8
2020,253967,Twenty N. State Condominium Association,20 N State St,4.0,Multifamily Housing,211608,3617.5,6793967.6,7219756.7,1443.8,6.8,41.8833,-87.62933,"(41.8833, -87.62933)",36,38
2020,160425,Chestnut Place Apartments,850 N State St,9,Multifamily Housing,337712,9009.0,9622556.9,2809700,1651,6.4,41.89836,-87.628624,"(41.89836, -87.628624)",11,37
2020,160422,Hotel Palomar Chicago,505 N State St,1.0,Hotel,108228,477.2,13286383.3,5032219.5,2340.9,21.6,41.89109,-87.627525,"(41.89109, -87.627525)",36,37
2018,113632,Lake Shore Land Association,1130 N LAKE SHORE DR,4.0,Multifamily Housing,58560,704,703121.8,3980161.7,328.4,5.6,41.895786,-87.62247,"(41.895786, -87.62247)",11,37
2018,134136,Jenkins Hall 171 W. Oak,141 173 W OAK ST,4.0,College/University,164122,6403,2146615.4,9481299.6,860.7,5.2,41.90375,-87.63559,"(41.90375, -87.63559)",46,37
2020,111452,Washington Square,1301 1309 W WASHINGTON BLVD,4.0,Multifamily Housing,90724,9322.9,1248590.7,3186550.9,364.1,4.4,41.92075,-87.70153,"(41.92075, -87.70153)",48,29
2020,251750,Sandoval Elementary -CPS,5534 S St Louis Ave,3.0,K-12 School,108534,2914.1,3013643.6,3897650.1,677.4,6.2,41.79248,-87.712326,"(41.79248, -87.712326)",8,61
2020,251751,Juarez Com Academy HS -CPS,2150 S Laflin St,2.5,K-12 School,256400,542.9,9832982.9,9129859.6,2019.6,7.9,41.780464,-87.60531,"(41.780464, -87.60531)",26,33
2020,175915,STEEPLE CENTER,4916 4938 S KEDZIE AVE,4.0,Strip Mall,213000,9588.5,4595476.6,3572073,906.9,10.5,41.80322,-87.70569,"(41.80322, -87.70569)",8,61
2016,173733,(IL600) - 2336 N. Commonwealth,2336  N COMMONWEALTH AVE,93,Multifamily Housing,55338,3725.9,1222424.1,2726902.9,370.2,6.7,41.922012,-87.65462,"(41.922012, -87.65462)",34,68
2020,251759,Swift Specialty -CPS,5900 N Winthrop Ave,2.5,K-12 School,109399,9877.5,3096169.7,5785780.1,790.5,7.2,41.769413,-87.609,"(41.769413, -87.609)",16,76
2018,173730,Beachwalk Apartments,420  W FULLERTON AVE,4.0,Multifamily Housing,60000,2498,1085841.7,4513066.1,420.4,7,41.92075,-87.70153,"(41.92075, -87.70153)",34,68
2020,251754,Phillip Murray Elementary Academy -CPS,5335 S Kenwood Ave,2.5,K-12 School,73984,8463.2,2151734.8,3291930.2,510.7,6.9,41.79868,-87.592804,"(41.79868, -87.592804)",10,8
2020,160429,Academy Square Apartments,318 S THROOP ST,1.0,Multifamily Housing,87388,2738.4,4562824.7,3149687.1,879.4,10.1,41.87711,-87.659836,"(41.87711, -87.659836)",46,29
2020,160414,Cambria Hotel,32 W RANDOLPH ST,0.0,Hotel,250000,3576.6,1678474.5,9604530.5,23993.5,20.8,41.88504,-87.629,"(41.88504, -87.629)",36,38
2017,113621,1414 North Wells Condominium Association,1414  N WELLS ST,97,Multifamily Housing,80000,5027.6,1691810,2804161,461.7,5.8,41.90375,-87.63559,"(41.90375, -87.63559)",46,37
2020,160412,Baumhart Student Residence Hall,26 E Pearson St,4.0,Residence Hall/Dormitory,246327,6025.8,5814939.8,8500000.2,1359,5.5,41.897568,-87.62726,"(41.897568, -87.62726)",11,37
2020,175907,Washington Courts,5424  W WASHINGTON BLVD,1.0,Multifamily Housing,109084,7730.3,1287025.2,12153921.3,846.4,7.8,41.880394,-87.75827,"(41.880394, -87.75827)",23,26
2020,173724,Arthur J. Schmitt Academic Center,2320 N Kenmore Ave,4.0,College/University,164408,4389.7,2736847.9,9923134.1,954.2,5.8,41.924084,-87.65537,"(41.924084, -87.65537)",34,68
2020,251761,Whitney -CPS,2815 S Komensky Ave,2.0,K-12 School,108653,489.1,2113715.6,11923470.7,963.2,8.9,41.94929,-87.64692,"(41.94929, -87.64692)",28,32
2018,173725,2140 N Lincoln Park West,2140  N LINCOLN PARK West,2.0,Multifamily Housing,51750,3887,1509117.4,5769999.9,557.5,10.8,41.922012,-87.65462,"(41.922012, -87.65462)",34,68
2020,251762,Schubert -CPS,2727 N Long Ave,4.0,K-12 School,101364,9491.8,1313378.2,5845590.2,515.5,5.1,41.930004,-87.76055,"(41.930004, -87.76055)",17,19
2020,251764,Parkside - 544,544 W Oak St,3.5,Multifamily Housing,166322,4859.7,3021595.4,6479046.3,815.7,5.8,41.90046,-87.64173,"(41.90046, -87.64173)",46,37
2020,251760,"Walsh, John A -CPS",2031 S Peoria St,2.5,K-12 School,73288,1645.4,2087219.7,3744980.1,524.7,7.2,41.854378,-87.64784,"(41.854378, -87.64784)",48,33
2018,100320,"IMDC LAPORTE, LLC",4039 4051 N LAPORTE AVE,4.0,Multifamily Housing,96000,2949,323935.3,6388787,393.2,4.1,41.94615,-87.74708,"(41.94615, -87.74708)",21,15
2020,251765,Bryn Mawr,5550 N Kenmore Ave,1.0,Multifamily Housing,156035,493.6,3373298,23498989.9,1774.6,11.4,41.98352,-87.657005,"(41.98352, -87.657005)",16,76
2017,101657,TLC Touhy LLC,1329 1337 W TOUHY AVE,18,Multifamily Housing,56894,5119.0,276229,3588743,241.7,4.2,41.92385,-87.63654,"(41.92385, -87.63654)",5,10
2020,251767,North Town Village,1311 N Halsted,4.0,Multifamily Housing,124125,5222.3,2065205.1,3434329.6,504.7,5,41.86555,-87.62305,"(41.86555, -87.62305)",46,37
2020,238365,Vision On State Condominium Association,1255 S State St,1.0,Multifamily Housing,373801,4220.7,10299005.9,13369700.2,2317.5,8.4,41.86615,-87.62696,"(41.86615, -87.62696)",9,34
2020,241533,565 W Quincy,565 W Quincy St,3.0,Multifamily Housing,468962,8931.4,13202519,4146579.2,2280.8,6,41.87862,-87.64199,"(41.87862, -87.64199)",36,29
2020,111038,600 N Lake Shore Dr,600 N Lake Shore Dr,3.5,Multifamily Housing,1050816,1175.9,17656721.6,44408768.9,5114.4,6.3,41.89281,-87.61458,"(41.89281, -87.61458)",36,37
2020,238367,1300 Lake Shore Drive Condominium Association,1300 N Lake Shore Dr,2.5,Multifamily Housing,403799,5320.4,9527508.8,20700022.2,2586.4,7.1,41.87781,-87.65493,"(41.87781, -87.65493)",34,37
2016,114543,(IL509) - Parkshore Cooperative,1755  E 55TH ST,57,Multifamily Housing,186905,7074.0,2092047.3,13885200.2,1123.1,6,41.802242,-87.603325,"(41.802242, -87.603325)",33,8
2017,147871,4420 N Clark Condominium Association,4418 4424 N CLARK ST,75,Multifamily Housing,58567,3510.5,629719,5898100,418,7.1,41.97223,-87.6646,"(41.97223, -87.6646)",18,31
2020,243714,Grandville Tower Condominiums,6166 N SHERIDAN RD,2.0,Multifamily Housing,194910,6000.8,3446461.5,14505485.6,1308.3,6.7,41.994316,-87.656,"(41.994316, -87.656)",16,76
2020,253994,Map Factory Lofts,5235 N Ravenswood Ave,4.0,Multifamily Housing,53903,7921.7,687156.3,1184311.8,170.1,3.2,41.972645,-87.66491,"(41.972645, -87.66491)",18,31
2020,251334,Seton Hall,2325 N Sheffield Ave,4.0,College/University,50174,7739.7,1660511.2,2640271,399.4,8,41.924816,-87.653244,"(41.924816, -87.653244)",34,68
2020,253996,The Pierre Condominium,2100 N Lincoln Park West,3.5,Multifamily Housing,230594,1151.2,3586506.2,10925669.1,1140.1,6,41.780464,-87.60531,"(41.780464, -87.60531)",34,68
2016,167479,Lincoln Park Commons Condominium Association,2650 2700 N CLARK ST,10,Mixed Use Property,103000,8136.3,6089812.7,4563119.9,1364.9,13.3,41.931847,-87.64461,"(41.931847, -87.64461)",34,68
2020,250004,Kennedy-King College,6301 S Halsted Ave,1.0,College/University,741244,6995.7,30403813,51194702,7464.3,15,41.7797,-87.64475,"(41.7797, -87.64475)",4,66
2020,250002,Arturo Velasquez Institute,2800 S Western Ave,3.0,College/University,349767,7386.8,5953791.6,6971400,1299.5,7.4,41.840996,-87.68628,"(41.840996, -87.68628)",26,33
2016,253993,(IL192) -2500 Lakeview Association,2500 N Lakeview Ave,71,Multifamily Housing,208975,6923.7,13093993.6,2688325.2,2556.3,12.2,41.921738,-87.65392,"(41.921738, -87.65392)",34,68
2020,251331,Munroe Hall,2312 N Clifton Ave,4.0,College/University,81951,46.3,2719530.6,5035292.2,691.9,8.4,41.923946,-87.65759,"(41.923946, -87.65759)",34,68
2020,251337,The Theatre School,2350 N Racine Ave,4.0,College/University,163000,6313.4,2842561,6976008.3,814.2,5,41.87781,-87.65493,"(41.87781, -87.65493)",34,68
2020,251338,Thomas P. Levan Center,2322 N Kenmore Ave,4.0,College/University,52477,9434.0,2181357.1,3168075.1,508.7,9.7,41.94929,-87.64692,"(41.94929, -87.64692)",34,68
2020,100393,Ford City Mall,7601 S Cicero Ave,2.0,Enclosed Mall,1939923,2393.9,118556416.8,12388849.6,19161.1,22.2,41.920395,-87.756165,"(41.920395, -87.756165)",30,63
2020,100396,St. Rita of Cascia HS,7740 S Western Ave,4.0,K-12 School,435118,6753.1,4445020.1,13678699.9,1420.3,5.2,41.75293,-87.68297,"(41.75293, -87.68297)",30,69
2016,116715,The Studios,1801  S WABASH AVE,81,Multifamily Housing,59094,4243.9,2956850.1,4346700,775.9,13.1,41.845505,-87.630554,"(41.845505, -87.630554)",48,35
2016,172812,4336-44 S Drexel Blvd,4336 4344 S DREXEL BLVD,41,Multifamily Housing,82960,5475.4,845978.1,4551233.5,397.7,4.8,41.87781,-87.65493,"(41.87781, -87.65493)",10,4
2020,251344,"Jewel Osco, 03470-Elston & Addison",3570 N Elston Ave,2.0,Supermarket/Grocery Store,55024,9933.5,9746473.3,4710000.1,1771.3,32.2,41.945118,-87.70845,"(41.945118, -87.70845)",12,22
2020,251346,650 W Lake Street,650 W Lake Street,4.0,Office,64709,5763.7,1142941.3,1931806,281,4.3,41.800785,-87.590485,"(41.800785, -87.590485)",36,29
2020,250014,Mann Park,2949 E 131st St,2.0,Other - Recreation,51273,2816.5,1186154.5,2994167,344.2,6.7,41.657314,-87.55272,"(41.657314, -87.55272)",47,52
2020,251340,Marriott Chicago at Medical District/UIC,625 S Ashland Ave,2.5,Hotel,72000,1656.3,5221196,2581010,952,13.2,41.893078,-87.66679,"(41.893078, -87.66679)",41,25
2016,116720,230-Senior Suites-Central Station,1400  S INDIANA AVE,41,Senior Care Community,71586,5642.6,2180882.2,4305700,630.7,8.8,41.938915,-87.76808,"(41.938915, -87.76808)",10,38
2020,251341,The Legacy at Millennium Park,60 E Monroe St,3.0,Multifamily Housing,1014137,8887.7,25785443.9,19950467.9,33572.5,77.4,41.88082,-87.62572,"(41.88082, -87.62572)",36,38
2020,250018,Douglas Park,1401 S Sacramento Dr,3.0,Other - Recreation,69619,9851.9,1549213.9,1163845.3,303.6,5.3,41.862392,-87.699745,"(41.862392, -87.699745)",14,30
2017,133242,1444 N Orleans,1444  N ORLEANS ST,6,Multifamily Housing,90000,756.6,1108815,3862479,410.2,4.6,41.90375,-87.63559,"(41.90375, -87.63559)",46,37
2020,250016,Loyola Park,1230 W Greenleaf Ave,1.0,Other - Recreation,75220,4899.5,510573.4,20902045.1,1189.9,21.2,41.87827,-87.64809,"(41.87827, -87.64809)",5,10
2020,251347,Evergreen Academy Middle -CPS,3537 S Paulina St,2.0,K-12 School,50060,8243.3,1496243.3,3326650.2,410.2,8.2,41.901516,-87.70676,"(41.901516, -87.70676)",1,56
2018,102568,Grace Shores,639  W GRACE ST,2.0,Multifamily Housing,52953,3170,2008344.1,7796899.7,748.2,14.1,41.95402,-87.662025,"(41.95402, -87.662025)",18,57
2017,113690,20 E Cedar Condominium,20  E CEDAR ST,60,Multifamily Housing,169733,4662.8,2938336,11930841,1177,6.9,41.88696,-87.623055,"(41.88696, -87.623055)",11,37
2016,113677,221 E Walton Condominium Association,221  E WALTON PL,5,Multifamily Housing,51812,2685.4,3205148.9,676332.8,626.7,12.1,41.895794,-87.62248,"(41.895794, -87.62248)",11,37
2016,103871,841-849 W Monroe Street,111 S PEORIA ST,1,Multifamily Housing,76000,1355.3,1375999.5,1552937.1,336.1,4.4,41.82021,-87.612465,"(41.82021, -87.612465)",48,29
2020,251794,Saint Francis of Assisi/OLA School-Galapagos Chart,3814 W Iowa St,4.0,Other,110959,3973.8,618972.8,4308911.1,325.5,2.9,41.938915,-87.76808,"(41.938915, -87.76808)",46,24
2020,253972,Conservancy at North Park Condo I,3900  W BRYN MAWR AVE,4.0,Multifamily Housing,72096,9030.1,721102.4,2570745.4,249.1,4.6,41.780464,-87.60531,"(41.780464, -87.60531)",27,20
2020,251312,"Home Depot, #1961 Elston/Leavitt",2542 Elston Ave,3.5,Retail Store,119178,3128.0,5901577.7,4940188.2,1183.5,9.9,41.927704,-87.68133,"(41.927704, -87.68133)",41,23
2020,251796,Chippewa Apartments,5050 S East End Ave,2.5,Multifamily Housing,74550,8878.9,1189825.9,6031792.5,506.1,6.8,41.803226,-87.58573,"(41.803226, -87.58573)",33,5
2020,251797,RML Specialty Hospital,3534 W Van Buren,3.0,Other - Specialty Hospital,190000,7081.3,17410765.4,28616514.1,4237.2,22.3,41.875443,-87.714195,"(41.875443, -87.714195)",23,28
2020,251790,Saint Monica School,5115 N Mont Clare Ave,2.0,Other,86262,4150.8,1478871.5,4814185,486.5,5.6,41.97393,-87.804306,"(41.97393, -87.804306)",29,36
2020,102532,Advocate Trinity Hospital,2320 E 93rd St,3.0,Hospital (General Medical & Surgical),637903,3040.1,27771847.3,55061201.4,7258.9,19.8,41.726734,-87.566956,"(41.726734, -87.566956)",37,44
2020,251319,03262-Irving Park & Cicero,4660 W Irving Park Rd,2.5,Supermarket/Grocery Store,70790,599.7,11518905.8,5207999.8,2074.4,29.3,41.955505,-87.74485,"(41.955505, -87.74485)",50,15
2020,101686,Harlem-Foster Shopping Center,7240 W Foster Ave,2.0,Strip Mall,760652,8226.1,15064028.2,20220946.8,3425.1,12.5,41.97458,-87.80809,"(41.97458, -87.80809)",29,36
2020,233920,SoNo Condominium Association,860 W Blackhawk St,1.0,Multifamily Housing,399124,3485.0,7496955.6,20908278.6,2280.6,7.6,41.908768,-87.65063,"(41.908768, -87.65063)",11,37
2020,251315,"Jewel Osco, 02502-Clybourn & Wrightwood",2550 N Clybourn St,2.0,Supermarket/Grocery Store,85209,1907.9,12439718.9,6609999.9,2292.5,26.9,41.927776,-87.67299,"(41.927776, -87.67299)",40,68
2020,251316,"Jewel Osco, 02508-Howard & Clark",1763 W Howard St,2.0,Supermarket/Grocery Store,70262,5657.0,10370757.2,6910399.7,1985.6,28.3,41.889732,-87.63612,"(41.889732, -87.63612)",5,10
2020,251317,Hotel Monaco Chicago,225 N Wabash,3.0,Hotel,150626,9629.4,3890031.2,12588149.9,25197.8,96.3,41.886517,-87.62599,"(41.886517, -87.62599)",36,38
2016,113668,229 E Lake Shore Drive,229 235 E LAKE SHORE DR,26,Multifamily Housing,93360,1524.4,1217138.9,3983034.4,435.9,4.7,41.895794,-87.62248,"(41.895794, -87.62248)",11,37
2020,100372,Holy Cross Hospial,2701 W 68th St,4.0,Hospital (General Medical & Surgical),409910,3400.1,5050093.6,130271002.2,7707.5,18.8,41.770004,-87.69084,"(41.770004, -87.69084)",31,64
2020,157208,SIR Chicago,400 S Jefferson St,4.0,Office,310704,5171.7,6270689.7,5449916.2,1268.1,4.6,41.972084,-87.70235,"(41.972084, -87.70235)",26,29
2017,114515,6901 Oglesby Avenue Apartment Building Corporation,6901 6915 S OGLESBY AVE,87,Multifamily Housing,108400,2727.6,1019997,1147889,249.6,2.3,41.762592,-87.57232,"(41.762592, -87.57232)",33,39
2020,243703,The Newport CA,4800 S Chicago Beach Dr,3.0,Multifamily Housing,842012,6340.8,8757628,65024082.1,4820.5,6.3,41.80657,-87.5867,"(41.80657, -87.5867)",10,5
2020,251321,1150 West Fullerton Bldg,1150 W Fullerton Ave,4.0,College/University,52043,9956.3,1230639,1187530,255.1,4.9,41.925594,-87.65815,"(41.925594, -87.65815)",34,68
2020,253986,430 W. Erie LLC,430 W Erie St,4.0,Office,68862,4413.0,2525838.9,2331072.2,518,7.5,41.89158,-87.63784,"(41.89158, -87.63784)",36,37
2020,251324,Arts & Letters Hall,2315 N Kenmore Ave,4.0,College/University,111269,8663.5,3566502.1,2318179.2,679.8,6.1,41.92404,-87.65452,"(41.92404, -87.65452)",34,68
2016,147895,"Lincoln Center Condominium Association, NFP",2472  W FOSTER,11,Multifamily Housing,80000,4117.5,2663884.9,2373651.2,617.1,7.7,41.972084,-87.70235,"(41.972084, -87.70235)",24,6
2020,253982,AMLI Lofts Polk,111 W Polk St,3.5,Multifamily Housing,242886,5471.8,5808135.4,5080799.8,1176.3,5.8,41.86842,-87.62414,"(41.86842, -87.62414)",10,38
2020,251320,"Jewel Osco, 03376-Kinzie & Des Plaines",370 N Desplaines St,4.0,Supermarket/Grocery Store,65000,7248.7,8231261.7,6466500.2,1628.1,25,41.88836,-87.64431,"(41.88836, -87.64431)",36,29
2020,102544,Olive-Harvey College,10001 S Woodlawn Ave,3.0,College/University,635874,1912.8,17826775.4,16167799.4,3641,9.2,41.972683,-87.65495,"(41.972683, -87.65495)",35,47
2020,253988,400 West Erie,400 W Erie St,4.0,Office,74429,1621.0,544831.5,2861616.6,237,3.2,41.89158,-87.63784,"(41.89158, -87.63784)",36,37
2020,251326,Centennial Hall,2345 N Sheffield Ave,4.0,College/University,88635,3614.8,4868312.7,5162446.4,1034,11.7,41.94662,-87.70269,"(41.94662, -87.70269)",34,68
2018,253987,(IL047) - 4900 Marine Drive Condo,4900 N Marine Dr,4.0,Multifamily Housing,126423,2539,1471220.3,7286754.4,631.8,5,41.972645,-87.66491,"(41.972645, -87.66491)",18,31
2017,101217,850 Eastwood,850  W EASTWOOD AVE,29,Multifamily Housing,244164,7548.9,4562277,13514707,1561.4,6.4,41.97223,-87.6646,"(41.97223, -87.6646)",18,31
2020,251327,Clifton-Fullerton Hall,2350 N Clifton Ave,4.0,College/University,92627,8039.3,888338.6,4312608.8,367.7,4,41.92507,-87.65786,"(41.92507, -87.65786)",34,68
2020,251328,John T. Richardson Library,2350 N Kenmore Ave,4.0,College/University,187000,7581.5,4766489.8,6066000.9,1066.1,5.7,41.925007,-87.65543,"(41.925007, -87.65543)",34,68
2016,104300,Roscoe Building,434 436 W ROSCOE ST,4,Multifamily Housing,71532,5760.2,701855.2,5798700,437.8,6.1,41.89217,-87.63413,"(41.89217, -87.63413)",25,57
2020,251382,Ogden Elementary - CPS,24 W Walton St,4.0,K-12 School,132724,7587.7,3180288.7,2857040.1,648.1,4.9,41.90029,-87.62906,"(41.90029, -87.62906)",11,37
2020,250051,Simeon Career Academy HS -CPS,8235 S Vincennes Ave,1.0,K-12 School,210316,4966.7,10676782.8,15910060.6,2511.4,11.9,41.744236,-87.635864,"(41.744236, -87.635864)",13,40
2020,250050,Phillips Academy HS -CPS,244 E Pershing Rd,4.0,K-12 School,287721,6214.0,3444002.9,10467359.9,1093.5,3.8,41.883114,-87.64488,"(41.883114, -87.64488)",9,1
2020,251376,Ashburn Community Elementary -CPS,8300 S St Louis Ave,4.0,K-12 School,58580,1675.9,652906.3,3336499.9,279.1,4.8,41.741898,-87.709816,"(41.741898, -87.709816)",30,69
2020,251377,"Hurley, Edward N -CPS",3849 W 69th Pl,2.0,K-12 School,55250,5614.1,1920764.5,3966449.8,510.4,9.2,41.766552,-87.719284,"(41.766552, -87.719284)",15,63
2020,250042,Crane Achievement Academy -CPS,2245 W Jackson Blvd,3.5,K-12 School,419415,5702.5,10662923,18241399.2,2633,6.3,41.876877,-87.68324,"(41.876877, -87.68324)",46,29
2020,250048,Kennedy HS / Kinzie ES -CPS,6325 W 56th St,2.5,K-12 School,233791,3799.3,7022779,17709129.6,2036.7,8.7,41.790203,-87.77942,"(41.790203, -87.77942)",15,53
2020,251372,Logandale -CPS,3212 W George St,4.0,K-12 School,138900,7591.2,2631041.7,6546970.1,758.4,5.5,41.93427,-87.70801,"(41.93427, -87.70801)",12,22
2020,175975,626 West Jackson,626 W Jackson Blvd,3.5,Office,120173,7111.4,6045180.4,3186622.7,943.5,7.9,41.87823,-87.64359,"(41.87823, -87.64359)",36,29
2020,250047,Julian HS -CPS,10330 S Elizabeth St,1.0,K-12 School,266404,6247.1,15546702.8,19107812.3,3441.3,12.9,41.705353,-87.65466,"(41.705353, -87.65466)",22,72
2020,125235,8527-Ukrainian Village,2021 W Chicago Ave,4.0,Supermarket/Grocery Store,54963,4996.9,7104480.7,7398300.6,1501.8,27.3,41.895527,-87.678375,"(41.895527, -87.678375)",41,25
2017,175978,451-BRE Rook SH Autumn Green Midway Villiage LLC,6700  S KEATING AVE,13,Senior Care Community,120000,6505.0,3981279,4274900,963.2,8,41.77517,-87.7139,"(41.77517, -87.7139)",6,63
2021,251374,Laura S Ward Elementary -CPS,410 N Monticello Ave,67,K-12 School,56600,9822.7,6688319.2,220602.7,32687.3,35.3,41.888596,-87.71777,"(41.888596, -87.71777)",46,24
2020,250049,Orr Academy HS -CPS,730 N Pulaski Rd,2.0,K-12 School,303310,7010.9,16370649.5,6627510.1,2907,9.6,41.93904,-87.63916,"(41.93904, -87.63916)",45,24
2020,135050,Women's Athletic Club,626 640 N Michigan,1.0,Social/Meeting Hall,85000,9335.9,4000680.9,6895570.2,990.6,11.7,41.895794,-87.62248,"(41.895794, -87.62248)",11,37
2020,244613,Fairbanks at Cityfront Plaza,240 E Illinois St,4.0,Multifamily Housing,819946,3529.7,18128454.4,42229277.5,5072.3,8.6,41.8914,-87.6208,"(41.8914, -87.6208)",36,37
2020,101283,Chicago-Central,4058 W Melrose St,3.0,Other - Specialty Hospital,119087,3773.9,8296520.6,16865894.3,2190.7,18.4,41.680508,-87.66246,"(41.680508, -87.66246)",21,16
2020,251391,Sheridan Elementary -CPS,533 W 27th St,3.5,K-12 School,68750,7642.7,881354.6,4635390.2,383.8,5.6,41.844208,-87.64111,"(41.844208, -87.64111)",48,58
2020,251392,"Canty Elementary, Arthur E -CPS",3740 N Panama Ave,3.0,K-12 School,103578,9108.3,2721308.3,4152149.7,645.3,6.2,42.01036,-87.6683,"(42.01036, -87.6683)",19,17
2020,251393,Waters Fine Arts -CPS,4540 N Campbell Ave,2.5,K-12 School,62847,390.8,1410151,3992980.1,432.2,6.9,41.964226,-87.69196,"(41.964226, -87.69196)",18,6
2020,252240,Presence Center for Advanced Care,331 W Surf St,7,Medical Office,373881,2888.2,14724772.5,16945256.2,3198.1,13.3,41.934307,-87.63842,"(41.934307, -87.63842)",25,57
2020,250061,Woodson Regional Library,9525 S Halsted St,1.0,Library,65000,2903.2,5940568.6,1781486.9,1021.8,15.7,41.721027,-87.6431,"(41.721027, -87.6431)",13,72
2020,251387,Woodson South -CPS,4414 S Evans Ave,2.5,K-12 School,71838,6918.2,1786096.8,5734300,583.3,8.1,41.868633,-87.627304,"(41.868633, -87.627304)",9,4
2020,255743,Burnham Pointe,730 South Clark Street,1.0,Multifamily Housing,532581,173.0,14995319.4,50180103.1,5005.6,11.7,41.86815,-87.62702,"(41.86815, -87.62702)",10,38
2020,250052,Steinmetz Academic Center HS -CPS,3030 N Mobile Ave,4.0,K-12 School,398320,4228.2,5563635.7,15502138.5,1691.7,4.2,41.895477,-87.660355,"(41.895477, -87.660355)",44,19
2020,251383,"Mcnair Academy Center, Ronald E -CPS",4820 W Walton St,2.0,K-12 School,98596,1359.9,3923152,2941059.9,768.5,7.8,41.89802,-87.74699,"(41.89802, -87.74699)",45,26
2020,251384,Cather -CPS,2910 W Washington Blvd,3.0,K-12 School,52579,1900.2,972075.3,3165680,319.9,6.1,41.883286,-87.699455,"(41.883286, -87.699455)",46,28
2020,250057,Englewood Health Center,641 W 63rd St,3.0,Outpatient Rehabilitation/Physical Therapy,54189,2749.4,2394744.8,3185042,542.9,10,41.906868,-87.73218,"(41.906868, -87.73218)",4,66
2020,251385,"Burley Elementary, Augustus H -CPS",1630 W Barry Ave,4.0,K-12 School,58527,7300.1,615765.2,2295190.1,218,3.7,41.93813,-87.66982,"(41.93813, -87.66982)",40,57
2016,104789,Commonwealth,2322 2326 N COMMONWEALTH AVE,5,Multifamily Housing,80000,1205.5,939490.1,5437787.5,462,5.8,41.782066,-87.67221,"(41.782066, -87.67221)",34,68
2016,162209,St. Edmund's Episcopal Church,6105 S Michigan Ave,12,K-12 School,60000,8892.8,652839.8,2524297.3,254.4,4.2,41.7835,-87.62164,"(41.7835, -87.62164)",4,7
2020,102585,Chicago State University Campus,9501 S Martin Luther King Dr,3.0,College/University,1170487,272.3,51376816.2,75457753.5,12026.3,10.3,41.883114,-87.64488,"(41.883114, -87.64488)",43,45
2020,241550,Lofts At Museum Park Condominium Association,1305 S Michigan Ave,3.0,Multifamily Housing,330065,9702.8,7389815.2,6288970.5,1838.3,6.8,41.86563,-87.62407,"(41.86563, -87.62407)",9,34
2020,116749,East Park Apartments,3300  W MAYPOLE AVE,2.0,Multifamily Housing,69302,4901.5,2329987.4,5426687.1,651.9,10.3,41.880825,-87.72328,"(41.880825, -87.72328)",23,27
2020,250022,Fosco Park,1312 S Racine Ave,1.0,Other - Recreation,89780,7137.3,4528908.5,12003999.5,1344.4,22.2,41.86475,-87.657425,"(41.86475, -87.657425)",26,29
2020,251355,"Evers Elementary, Medgar -CPS",9811 S Lowe Ave,4.0,K-12 School,52968,668.4,884355.7,2013100,244.9,4.6,41.715652,-87.63896,"(41.715652, -87.63896)",22,72
2018,105608,513-519 W. Briar Pl.,513 519 W BRIAR PL,1.5,Multifamily Housing,50736,1812,867163.2,4106564.9,362.4,7.1,41.72019,-87.656715,"(41.72019, -87.656715)",25,57
2020,251356,Johnson Elementary -CPS,1504 S Albany Ave,2.0,K-12 School,56581,1871.2,1240703,3808259.5,395.9,7,41.861115,-87.703415,"(41.861115, -87.703415)",14,30
2017,116750,Lucy Lang Chappell Housing,3222 W Maypole Ave,90,Multifamily Housing,127711,9600.8,1111531,2637282,345.6,2.7,41.87827,-87.64809,"(41.87827, -87.64809)",23,27
2020,127877,Howard & Western Shopping Center,7510 - 7578 N Western Ave,4.0,Strip Mall,69338,1427.0,3655955,860095.8,616.3,8.9,42.01799,-87.69084,"(42.01799, -87.69084)",27,20
2018,251352,Bridgeport-CPS,501 - 505 W 35th St,4.0,Office,73600,393,2831581.3,1996503.8,577.1,7.8,41.82813,-87.624405,"(41.82813, -87.624405)",48,58
2020,116752,Ike Sims Village,3333  W MAYPOLE AVE,1.0,Multifamily Housing,68664,5684.4,3806013.4,2429039.2,723,10.5,41.880825,-87.72328,"(41.880825, -87.72328)",23,27
2020,250023,La Follette Park,1333 N Laramie Ave,3.0,Other - Recreation,66455,5007.6,15177.7,5948784.2,318.3,4.9,41.904987,-87.75511,"(41.904987, -87.75511)",45,26
2020,100397,Bogan HS -CPS,3939 W 79th St,4.0,K-12 School,184611,4964.8,2110928.7,8637329.7,788.2,4.3,41.74946,-87.720146,"(41.74946, -87.720146)",30,69
2017,172485,Westminster Condominium Association,36 50 N MENARD AVE,100,Multifamily Housing,67968,4698.8,912150,4618231,413.9,6.1,41.880394,-87.75827,"(41.880394, -87.75827)",23,26
2015,250029,"Washington Park Fieldhouse, Trades, DuSable Roundhouse",5531 S Martin Luther King Dr,85,Museum,122439,8332.6,11285030,17774910,3211,26.2,41.947426,-87.642685,"(41.947426, -87.642685)",4,7
2018,250027,"Garfield Park Conservatory, Fieldhouse & Trades",300 N Central Park Ave,0.0,Other,299207,8524.7,9933480.1,7503162.0,16182.9,47.6,41.88626,-87.717964,"(41.88626, -87.717964)",23,28
2020,251358,Irving Park Middle -CPS,3815 N Kedvale Ave,3.0,K-12 School,50560,7110.1,1611970.8,1834489.8,349,6.9,41.7398,-87.653496,"(41.7398, -87.653496)",50,16
2020,251359,"Kershaw Elementary, Joshua D -CPS",6450 S Lowe Ave,2.0,K-12 School,51900,6294.4,1263915.5,4265720,423.8,8.2,41.77674,-87.64116,"(41.77674, -87.64116)",4,66
2018,105604,Grenada,525 531 W ARLINGTON PL,2.5,Multifamily Housing,70000,4519,979673.9,6339875.9,499.7,7.1,41.810013,-87.64727,"(41.810013, -87.64727)",34,68
2020,243745,Kennelly Square Condominium Association,1749 N Wells St,4.0,Multifamily Housing,330096,5963.6,4276198.3,19152019.3,1684.6,5.2,41.9142,-87.634766,"(41.9142, -87.634766)",34,68
2016,175507,Elm II LLC,18  E ELM ST,70,Multifamily Housing,78055,7458.8,2661841.1,1899536.4,591.5,7.6,41.88321,-87.64337,"(41.88321, -87.64337)",11,37
2020,250033,South Shore Cultural Center,7059 S South Shore Dr,0.0,Other - Recreation,258659,9333.8,6185726.2,7959586.0,33204.9,8.5,41.766552,-87.56527,"(41.766552, -87.56527)",33,39
2020,251365,"Alcott Elementary, Louisa May -CPS",2625 N Orchard St,3.5,K-12 School,70993,9265.2,911961.4,4987000.2,407.2,5.7,41.92266,-87.693275,"(41.92266, -87.693275)",34,68
2017,175506,112th Street Building,11203 S ELLIS ST,30,Office,61357,991.2,3217400,2300040,717,11.7,41.82021,-87.612465,"(41.82021, -87.612465)",43,47
2020,250032,California Park / McFetridge,3843 N California Ave,1.0,Other - Recreation,157284,1348.3,7266963.3,9341090.3,1630.3,15.1,41.95106,-87.698166,"(41.95106, -87.698166)",20,16
2016,105619,529 West Wellington,521 541 W WELLINGTON AVE,64,Multifamily Housing,80064,6462.8,700224.3,5650182,429.2,5.4,41.88321,-87.64337,"(41.88321, -87.64337)",25,57
2020,175508,8507-Jefferson Park (Elston),5353 N Elston Ave,2.5,Supermarket/Grocery Store,63165,2206.4,9376555,10009607.2,1995.1,31.6,41.978874,-87.75758,"(41.978874, -87.75758)",38,11
2020,251368,"Washington HS , George -CPS",3535 E 114th St,1.0,K-12 School,214541,3096.0,9150781.8,23958843.7,2700.7,12.6,41.87781,-87.65493,"(41.87781, -87.65493)",47,49
2020,125204,Reside on Morse,1340  W MORSE AVE,2.0,Multifamily Housing,30901,1041.7,1578640.4,5676092.8,547.9,8.8,41.816807,-87.60777,"(41.816807, -87.60777)",5,10
2015,175987,CHI MORGAN PARK (2344),11840 S Marshfield Ave,57,Retail Store,128837,2253.8,6778822,2936700,1518,11.8,41.76739,-87.56693,"(41.76739, -87.56693)",22,74
2020,250035,Austin Polytechical HS -CPS,231 N Pine Ave,4.0,K-12 School,397258,7324.3,5108821.7,18331918.7,1771,4.5,41.88456,-87.762184,"(41.88456, -87.762184)",45,26
2015,251364,LozanoBiling-CPS,1424 N Cleaver Street,17,K-12 School,63861,4842.6,2509157,3738981,703,11,41.907505,-87.66398,"(41.907505, -87.66398)",11,25
2020,102587,Carver Millitary Academy -CPS,13100 S Carver Dr,3.0,K-12 School,298689,8061.6,9330412,11850289.4,2085.6,7,41.65756,-87.59212,"(41.65756, -87.59212)",43,51
2017,173322,CHICAGO SOUTH (1488),8560 S Cottage Grove Ave,54,Retail Store,126880,6596.7,6149939,3210400,1307.6,10.3,41.739326,-87.606766,"(41.739326, -87.606766)",32,40
2020,250039,Carver Middle -CPS,801 E 133rd Pl,2.0,K-12 School,144504,9015.8,2685268,14010529.7,1163.3,8,41.895477,-87.660355,"(41.895477, -87.660355)",43,51
2020,158184,33 West Monroe,33 W Monroe St,4.0,Office,1134375,9745.6,50088609.1,6325615.9,8344.4,7.7,41.880386,-87.628784,"(41.880386, -87.628784)",36,38
2020,250038,Brooks College Prep. Acad - CPS,250 E 111th St,3.5,K-12 School,264710,73.2,7058822.9,12002910,1739.2,6.6,41.69388,-87.61699,"(41.69388, -87.61699)",43,45
2017,105617,441 W. Oakdale Apartments,441  W OAKDALE AVE,50,Multifamily Housing,61720,6573.0,1000491,4608689,429.8,7,41.93985,-87.65845,"(41.93985, -87.65845)",25,57
2020,252216,Beach Point Tower Condominium Association,5801 N Sheridan Rd,1.0,Multifamily Housing,160000,9707.7,2879608.5,12834131.1,1131.1,7.1,41.987602,-87.65521,"(41.987602, -87.65521)",16,76
2020,252217,Lakeshore Sport & Fitness Lincoln Park,1320 W Fullerton Ave,1.0,Fitness Center/Health Club/Gym,131000,1822.7,12951331.2,19304600,3046.7,23.3,41.925262,-87.66147,"(41.925262, -87.66147)",11,68
2018,105615,Surf III LLC,426 W SURF ST,4.0,Multifamily Housing,89650,3527,2771973.3,1470976.2,539.3,6,41.93985,-87.65845,"(41.93985, -87.65845)",25,57
2020,175981,860 Evergreen LLC,860 W Evergreen Ave,4.0,Office,105000,9973.4,315148.1,2163312.8,164.1,1.6,41.906113,-87.65013,"(41.906113, -87.65013)",46,37
2016,102160,Block 37,108 N State St,55,Multifamily Housing,1019380,4952.4,50478049.2,9190839.6,9792.3,9.6,41.88349,-87.62793,"(41.88349, -87.62793)",36,38
2020,240284,2700 N. Hampden Court Condominium Association,2700 N Hampden Ct,1.5,Multifamily Housing,144000,5683.0,5979581.6,1774309.8,933.2,8.3,41.792213,-87.59995,"(41.792213, -87.59995)",34,68
2018,105673,Holiday Inn Downtown Chicago,506  W HARRISON ST,2.5,Hotel,150937,5445,6366297.3,10847701.5,1635.3,10.8,41.793297,-87.68838,"(41.793297, -87.68838)",48,29
2016,252270,Delaware II LLC,25 E Delaware Pl,67,Multifamily Housing,106015,3278.1,3622049.5,3282174.1,842,7.9,41.89915,-87.627304,"(41.89915, -87.627304)",11,37
2020,250090,Irene McCoy Gaines Apartments,3700 W Congress Pkwy,4.0,Multifamily Housing,117963,3980.6,1966717.7,8437819.9,755.1,6.4,41.886078,-87.63304,"(41.886078, -87.63304)",23,28
2020,250095,Kenneth Campbell Apartments,6360 S Minerva Ave,4.0,Multifamily Housing,100911,4867.7,2112867.3,7345970.2,719.9,7.1,41.77908,-87.5967,"(41.77908, -87.5967)",4,9
2020,250093,Judge Frederick W. Slater Apartments,740 E 43rd St,4.0,Multifamily Housing,248472,1090.0,5099100.9,17035610.5,1700.7,6.8,41.81743,-87.60783,"(41.81743, -87.60783)",10,4
2020,250092,Judge Harry M. Fisher Apartments,5821 N Broadway St,4.0,Multifamily Housing,173733,577.2,3365388.7,8744079.9,989.7,5.7,41.987633,-87.65981,"(41.987633, -87.65981)",16,76
2020,250088,Harry J. Schneider Apartments,1750 W Peterson Ave,3.0,Multifamily Housing,111293,8171.9,2636312.6,8996829.8,889.3,8,41.99126,-87.67384,"(41.99126, -87.67384)",24,76
2016,252267,Paper Place Lofts,801 S Wells St,84,Multifamily Housing,139879,462.1,5324583,5222899.9,1258.8,9,41.871754,-87.63352,"(41.871754, -87.63352)",26,38
2016,229016,Fulton House Condominium,345-355 N Canal St,14,Multifamily Housing,175456,8976.8,8510732.4,679893.2,1568.7,8.9,41.88806,-87.639915,"(41.88806, -87.639915)",36,29
2020,250087,Fannie Emanuel,3916 W Washington,2.0,Multifamily Housing,94952,3630.7,5532907,4798730.1,1118.4,11.8,41.82021,-87.612465,"(41.82021, -87.612465)",23,27
2020,146136,Reside on Barry,533 549 W BARRY AVE,3.0,Multifamily Housing,113088,5000.7,3433505.5,7294405,923.3,8.2,41.779964,-87.61674,"(41.779964, -87.61674)",25,57
2018,173759,Plaza 32 Condominium Association,3224 3244 N HALSTED ST,3.0,Multifamily Housing,273284,7883,6712335.5,10988665.4,1700.4,6.2,41.845505,-87.630554,"(41.845505, -87.630554)",25,57
2020,252269,Beth Anne Extended Living,1143-53 N Lavergne,1.0,Multifamily Housing,80000,9006.3,4299426.2,7565080.9,1072.8,13.4,41.782066,-87.67221,"(41.782066, -87.67221)",45,26
2020,234838,1400 South Michigan,1400 S Michigan Ave,3.0,Multifamily Housing,469949,2534.8,9480013.3,15259903,2290.1,6.7,41.863785,-87.62456,"(41.863785, -87.62456)",9,34
2020,157280,Noble Square Cooperative,1165 N MILWAUKEE AVE,2.5,Multifamily Housing,284850,2372.2,5610795.7,20367432.6,1957.5,6.9,41.913208,-87.681404,"(41.913208, -87.681404)",40,25
2018,173754,422 West Melrose,422 424 W MELROSE ST,4.0,Multifamily Housing,164485,4442,1291428.4,12774520.9,893.4,5.4,41.93985,-87.65845,"(41.93985, -87.65845)",25,57
2020,126126,Pete's Kedgie,4700 S Kedzie Ave,3.0,Supermarket/Grocery Store,104000,477.4,8478849.5,4921832.6,1584.7,29.3,41.8074,-87.70533,"(41.8074, -87.70533)",8,55
2016,173751,Clark Street Investors L.L.C.,3134 N Clark St,16,Retail Store,57582,9775.7,2867390.2,2551627.3,664,11.5,41.938766,-87.64971,"(41.938766, -87.64971)",25,57
2020,173752,Eddystone Condominium Homes,415 421 W MELROSE ST,4.0,Multifamily Housing,257774,2958.6,2165789.1,12640904.7,1009.4,4.1,41.93985,-87.65845,"(41.93985, -87.65845)",25,57
2015,158134,The Goodman Theatre,170 N Dearborn Ave,22,Performing Arts,171000,6287.6,11186703,23405,2249,13.2,41.877457,-87.635735,"(41.877457, -87.635735)",36,38
2020,158133,353 N Clark St,353 N Clark St,3.5,Office,1436222,8902.7,79663554.8,6236227.7,12768.5,9.4,41.887623,-87.67442,"(41.887623, -87.67442)",36,37
2020,160436,The Bernardin,747 N Wabash Ave,4.0,Multifamily Housing,330270,8979.0,8309212.7,8246078.5,1734.8,6,41.86842,-87.62414,"(41.86842, -87.62414)",36,37
2020,160438,155 North Wacker,155 N Wacker Dr,3.5,Office,1484327,5604.0,61273705.5,2779296.8,10905.4,7.8,41.88466,-87.63681,"(41.88466, -87.63681)",36,38
2020,252284,Amhurst Lofts,2600 N Southport Ave,4.0,Multifamily Housing,150526,7837.5,1751676.5,5353449.9,557.7,5,41.929058,-87.66341,"(41.929058, -87.66341)",40,68
2020,255791,The Renaissance at Southshore / Symphony South Shore LLC,2425 E 71st St,3.0,Senior Living Community,97516,5601.0,3084152.9,7664399.6,888.4,11,41.75922,-87.56185,"(41.75922, -87.56185)",37,39
2020,250098,Lincoln Perry Apts,3245 S Prairie Ave,3.5,Multifamily Housing,312210,5765.5,5122968,19458551.6,1833.1,5.9,41.835358,-87.620224,"(41.835358, -87.620224)",9,1
2020,252279,Lunt Lake Cooperative Apartments,1122-40 W Lunt Ave,4.0,Multifamily Housing,114360,5750.6,1256207,4838103,453,4.1,41.90578,-87.66365,"(41.90578, -87.66365)",5,10
2017,175927,The Mayfair,1660  E 55TH ST,65,Multifamily Housing,95500,7409.2,871725,6943660,530,5.5,41.802242,-87.603325,"(41.802242, -87.603325)",33,8
2020,252274,COP_MADW5957,5957-73 W Madison St,1.0,Multifamily Housing,62250,5755.4,2184550,3965182.4,551.6,8.9,41.880062,-87.77369,"(41.880062, -87.77369)",7,26
2017,255783,4631,4631 4637 S Lake Park,70,Multifamily Housing,58000,797.1,447170,3445205,265.7,4.6,42.01036,-87.6683,"(42.01036, -87.6683)",36,38
2020,158121,Chase Tower Chicago,10 S Dearborn St,4.0,Financial Office,2521929,8049.9,71360320.7,811300,11189.8,4.6,41.88164,-87.630104,"(41.88164, -87.630104)",36,38
2020,256639,MRR 619 S LaSalle LLC,619 S LaSalle,3.0,Multifamily Housing,1217060,6001.5,2472731,3740693.2,584.6,6.2,41.86949,-87.625854,"(41.86949, -87.625854)",10,38
2017,105653,601 Condominium,601  E 32ND ST,33,Multifamily Housing,190893,1426.2,5006718,18050316,1884.5,9.9,41.845505,-87.630554,"(41.845505, -87.630554)",48,35
2020,243773,680 North Lake Shore Drive,680 N Lake Shore Dr,4.0,Multifamily Housing,1945838,9004.8,38480091.6,52107310,8773.2,5.3,41.89466,-87.61676,"(41.89466, -87.61676)",36,37
2018,114125,Michigan Avenue Garden Terraces Condominium Association,1430 1440 S MICHIGAN AVE,3.0,Multifamily Housing,107344,4079,2691204.8,5949466.1,763.7,7.1,41.759693,-87.67628,"(41.759693, -87.67628)",10,38
2020,252250,Argyle Apartments,840 850 W Argyle St,3.5,Multifamily Housing,65492,4393.2,968509.8,5458012.2,441.1,7.5,41.973385,-87.65198,"(41.973385, -87.65198)",16,31
2020,252251,Chinatown Elderly,300 W 23rd St,1.0,Multifamily Housing,122883,1323.1,4781921.1,4562006.4,988.6,8.7,41.85096,-87.63518,"(41.85096, -87.63518)",26,35
2020,250072,Lake Parc Place,3939 - 3983 S Lake Park Ave,4.0,Multifamily Housing,291997,2103.8,2682350.1,28517561.6,1933.3,6.6,41.82392,-87.602684,"(41.82392, -87.602684)",10,2
2020,250071,Cabrini Rowhomes,900 N Hudson,4.0,Multifamily Housing,744162,6468.3,3318342.8,378860,538,0.7,42.006603,-87.66729,"(42.006603, -87.66729)",46,37
2021,251398,To be determined (Building being renovated in 2015-2016),221 E 49th St,0.0,K-12 School,57743,9603.6,6242026.8,6307082.7,28947.2,62.3,41.805344,-87.620285,"(41.805344, -87.620285)",9,4
2020,255756,ASPIRA Business and Finance High School,2989 N Milwaukee Ave,4.0,K-12 School,98920,8888.9,2143806.3,2539312.9,469.5,5.7,41.955624,-87.70583,"(41.955624, -87.70583)",20,16
2018,255757,Viceroy Chicago,1118 N State Street,2.5,Hotel,134668,11152,8888068.9,11828935.5,2106.9,15.6,41.90563,-87.63225,"(41.90563, -87.63225)",11,37
2020,252247,222 E Chestnut Condominium Association,222 E Chestnut,4.0,Multifamily Housing,121000,5399.1,1412339.4,6620470.3,572.1,4.7,41.898468,-87.62109,"(41.898468, -87.62109)",11,37
2020,251394,"Hale Elementary, Nathan -CPS",6140 S Melvina Ave,4.0,K-12 School,99233,6687.8,1163492,6156889.8,508.6,5.1,41.680508,-87.66246,"(41.680508, -87.66246)",15,62
2018,175953,Hotel Blake,500  S DEARBORN ST,3.5,Hotel,150000,6491,6062530.3,8637861.4,1467.4,9.8,41.868633,-87.627304,"(41.868633, -87.627304)",10,38
2020,251395,Mcclellan Elementary -CPS,3527 S Wallace St,2.5,K-12 School,58108,2689.0,726997.5,5224480.1,391,6.7,41.830357,-87.64086,"(41.830357, -87.64086)",48,58
2020,250068,Police Training Academy,1300 W Jackson Blvd,1.0,Adult Education,180000,8841.6,12867484.5,14822056.9,2795.5,15.5,41.87842,-87.660576,"(41.87842, -87.660576)",46,29
2020,251396,Hammond Elementary -CPS,2819 W 21st Pl,3.0,K-12 School,59692,8321.5,1133018.8,3595800,367.8,6.2,41.76739,-87.56693,"(41.76739, -87.56693)",1,32
2020,250067,Goldblatts Building,1609 W Chicago Ave,3.5,Office,160280,5947.8,8755592,3824434.7,1569.6,9.8,41.89604,-87.66779,"(41.89604, -87.66779)",41,25
2016,173773,530 W. Diversey,530  W DIVERSEY PKWY,92,Multifamily Housing,50864,1402.5,2057865.9,3379357.6,558.8,11,41.922012,-87.65462,"(41.922012, -87.65462)",34,68
2018,137212,Trevi Square Condominium Association,1439  S MICHIGAN AVE,4.0,Multifamily Housing,103020,2143,1726506.1,5120458.3,559.2,5.4,41.868633,-87.627304,"(41.868633, -87.627304)",10,38
2018,173774,2828 N Burling,2816 2828 N BURLING ST,4.0,Multifamily Housing,60665,1837,1753819.2,754315.2,331.8,5.5,41.93985,-87.65845,"(41.93985, -87.65845)",25,57
2020,252249,Enola Dew Apartments,4623 W Galdys Ave,2.0,Multifamily Housing,66645,5977.3,1590623.2,2545752.4,383.5,6.8,41.875957,-87.74103,"(41.875957, -87.74103)",14,26
2021,256607,Broadway 6145 Master Associates LLC,6149 N. Broadway,3.0,Multifamily Housing,91557,3281.5,2351236.5,2242767.8,454.9,5.9,41.88425,-87.63245,"(41.88425, -87.63245)",36,38
2020,159002,U.S. Bank -- Pullman Branch,1000 E 111th St,2.0,Office,96000,7284.3,6149195,7766461.1,1372.2,14.3,41.694427,-87.59918,"(41.694427, -87.59918)",43,47
2016,160451,50 East Chestnut Condominiums,50 E Chestnut St,66,Multifamily Housing,138485,1393.3,4770655,7632721.7,1284.7,9.3,41.898598,-87.62618,"(41.898598, -87.62618)",36,37
2020,160453,Halsted Flats,3740 N Halsted St,2.5,Multifamily Housing,284429,4183.6,9799072.7,9134299.8,2014.5,8.8,41.950424,-87.649506,"(41.950424, -87.649506)",39,57
2018,252262,Humboldt Ridge - Parent,1816 N St Louis Ave,4.0,Multifamily Housing,90216,1079,2102049.3,2708981.9,493.6,5.5,41.914185,-87.71345,"(41.914185, -87.71345)",41,23
2020,119808,McGowan South,1110 W Belden,1.0,College/University,127900,4294.5,9262579.9,12478551.7,2108.4,16.5,41.92383,-87.656586,"(41.92383, -87.656586)",34,68
2020,250082,Armour Square Apartments,3120 3250 S Wentworth Ave,3.5,Multifamily Housing,313167,5927.5,3910598.9,28119790.5,2103.9,6.7,41.71459,-87.68148,"(41.71459, -87.68148)",48,35
2020,250081,Alfreda Barnett Duster Apts,150 S Campbell Ave,3.5,Multifamily Housing,101482,679.7,1768843.8,7889079.2,695.1,6.9,41.878876,-87.689545,"(41.878876, -87.689545)",46,29
2020,250077,Wentworth Gardens,3770 S Wentworth Ave,4.0,Multifamily Housing,838253,4690.5,10218531,29373359.2,3155,3.8,41.991196,-87.81565,"(41.991196, -87.81565)",9,35
2020,250075,Lowden Homes,200 W 95th St,1.0,Multifamily Housing,114868,4860.6,1786861.8,98870771.9,5530.4,48.1,41.72175,-87.62886,"(41.72175, -87.62886)",13,45
2020,250074,Lawndale Gardens,2530 S Washtenaw Ave,1.0,Multifamily Housing,99462,5888.0,2884590.1,11999570.3,1087.6,10.9,41.846054,-87.69305,"(41.846054, -87.69305)",14,32
2018,173764,Saint Luke Church & Academy,1500 W Belmont Ave,4.0,Other - Education,64000,6631,757245.6,4988120.4,126,2,41.940025,-87.666794,"(41.940025, -87.666794)",25,57
2020,252253,Northwest Tower Apartments,1170 W Erie St,3.5,Multifamily Housing,174560,1223.1,2082381.2,13118435.8,1021.8,7.3,41.89331,-87.656784,"(41.89331, -87.656784)",46,25
2018,116786,Plaza Taino,1111  N FRANCISCO AVE,3.0,Multifamily Housing,66000,2226,1323016.6,3479080,404.9,6.1,41.902252,-87.68448,"(41.902252, -87.68448)",11,25
2017,250078,Henry Horner,1815 W Monroe St,8,Multifamily Housing,483032,3472.8,3202998,6132649,918,1.9,41.96422,-87.66098,"(41.96422, -87.66098)",46,29
2020,158142,Lake Shore Plaza,445 E Ohio St,1.0,Multifamily Housing,415260,7813.4,22926289.4,19044700,4589.6,11.1,41.892242,-87.61627,"(41.892242, -87.61627)",36,37
2021,173763,West Roscoe,425 427 W ROSCOE ST,4.0,Multifamily Housing,50500,1208.2,1161426,1321766,236.1,4.7,41.93985,-87.65845,"(41.93985, -87.65845)",25,57
2020,232666,Transportation Building Condominium Association,600 S Dearborn St,3.5,Multifamily Housing,447776,8751.8,12611243.5,5592482.1,2265.3,5.1,41.874043,-87.62945,"(41.874043, -87.62945)",10,38
2016,104261,500 W. Belmont Apartments,500  W BELMONT AVE,61,Multifamily Housing,54927,133.0,915647.7,3702833.9,365.4,6.7,41.97596,-87.66962,"(41.97596, -87.66962)",25,57
2020,134911,PCC-Chicago Office,643 N Orleans St,4.0,Office,80219,937.9,1886474.5,2572821.6,431.1,8,41.893654,-87.63708,"(41.893654, -87.63708)",36,37
2020,105596,Commonwealth Apartments,2751 2765 N PINE GROVE AVE,2.5,Multifamily Housing,101893,3758.3,3312277.6,4680919.6,765.6,7.5,41.922012,-87.65462,"(41.922012, -87.65462)",34,68
2019,130553,4700 N MARINE DR,4700 N MARINE DR,4.0,Medical Office,135093,6399.3,3405659.8,4060392.2,782.2,5.8,41.96763,-87.64973,"(41.96763, -87.64973)",39,31
2020,244200,Michigan Avenue Tower Condominium Association,1250 S Michigan Ave,3.5,Multifamily Housing,441181,9891.8,11810740.5,14165958.4,2595.7,6.4,41.89029,-87.61816,"(41.89029, -87.61816)",9,34
2020,254010,824 West Superior Condominium Assocation,824 W Superior St,3.0,Multifamily Housing,77000,9618.2,1951315.9,3666205.9,499.3,7.6,41.90578,-87.66365,"(41.90578, -87.66365)",46,25
2020,256671,Chantico Lofts,1061 W 16th Street,4.0,Multifamily Housing,74104,9754.5,707290.5,2394902.6,237.6,4.4,41.88425,-87.63245,"(41.88425, -87.63245)",36,38
2020,256669,Francisco,4011 N Francisco Avenue,4.0,Multifamily Housing,76732,774.9,1052564.5,1918507.3,266.2,4.9,42.01036,-87.6683,"(42.01036, -87.6683)",36,38
2020,254008,Hyde Park Courtway,4816 4828 S Dorchester Ave,4.0,Multifamily Housing,69540,9875.0,462947,3738231.1,270.8,3.9,41.802242,-87.60352,"(41.802242, -87.60352)",33,8
2020,256667,Oakwood Court,6547 N Harlem Avenue,4.0,Multifamily Housing,134153,9089.8,712974.9,4076913.3,327.8,2.9,41.88425,-87.63245,"(41.88425, -87.63245)",36,38
2021,256668,900-10 W Winona,900-10 W Winona Street,4.0,Multifamily Housing,51576,4016.3,629326.3,1087867.8,147.7,2.9,41.88425,-87.63245,"(41.88425, -87.63245)",36,38
2016,254001,(IL287) - The Robey,4434 4444 N Damen Ave,68,Multifamily Housing,53800,8367.4,1011310,3091001.5,350.6,6.5,41.834167,-87.62294,"(41.834167, -87.62294)",24,6
2016,254004,(IL508) - 2700 Club Condo,2700 N Halsted St,55,Multifamily Housing,62524,9750.4,1707402.3,1689924.7,404.5,6.5,41.921738,-87.65392,"(41.921738, -87.65392)",34,68
2016,174123,STEWART BUSINESS CENTER,400 W 76th St,96,Not Available,220000,1105.6,6123101.5,9030224.2,22035.7,83.8,41.756493,-87.63511,"(41.756493, -87.63511)",32,67
2020,174126,Pete's 118th,3454 - 3620 E 118th St,1.0,Supermarket/Grocery Store,94000,2543.6,9625002.8,7587758,1905.2,35.3,41.68095,-87.53555,"(41.68095, -87.53555)",47,52
2020,254009,Maple Court Apartments,1120 1126 E 47th St,2.0,Multifamily Housing,50760,840.5,421794.8,5861699.8,377.2,7.4,41.82023,-87.61187,"(41.82023, -87.61187)",10,4
2020,122919,03241-Paulina & Division,1341 N Paulina St,4.0,Supermarket/Grocery Store,52422,3330.6,7837039.9,3900499.7,1430.3,27.3,41.769413,-87.609,"(41.769413, -87.609)",41,25
2018,102091,Superior West Private Residences (101 W Superior),101 W SUPERIOR ST,4.0,Multifamily Housing,111004,2394,2125935.3,3252625.1,526.4,4.7,41.920395,-87.756165,"(41.920395, -87.756165)",36,37
2020,254016,North Park Village Apartments - Building E,5801 N Pulaski Rd - Bldg E,4.0,Residential Care Facility,55866,6022.4,1867145.5,2549815.3,426.8,7.6,41.999584,-87.77148,"(41.999584, -87.77148)",29,12
2020,256679,Hawthorne Point,1511-1525 W Cullom Ave,4.0,Multifamily Housing,55820,9213.1,528901,1897841.9,183.3,3.3,41.954025,-87.670265,"(41.954025, -87.670265)",18,57
2020,254015,North Park Village Apartments - Building G,5801 N Pulaski Rd - Bldg G,4.0,Residential Care Facility,191550,6905.6,6404134,8671238.9,1460.1,7.6,41.976578,-87.6701,"(41.976578, -87.6701)",29,12
2016,175441,Instituto Health Sciences Career Academy,2520 S Western Ave,34,K-12 School,93000,3643.8,2505068.0,2742100.4,16888.1,1.1,41.84567,-87.68587,"(41.84567, -87.68587)",26,33
2016,108602,Lathrop Elderly,2701 2741 N LEAVITT ST,14,Multifamily Housing,70732,7254.3,1309206.9,5627900.2,540.2,7.6,41.92075,-87.70153,"(41.92075, -87.70153)",41,23
2020,252292,Hollywood House,5700 N Sheridan Rd,1.0,Multifamily Housing,150463,3126.4,5161390.4,9152920.8,1291.7,8.6,41.98585,-87.65525,"(41.98585, -87.65525)",16,76
2020,252294,Reside on Wellington,510-24 W Wellington,3.0,Multifamily Housing,72000,3463.7,1127335,5318649.1,458.4,6.4,41.93654,-87.6422,"(41.93654, -87.6422)",25,57
2020,252289,Palmer Square Apts (2 of 6),2128-40 N Kedzie,4.0,Multifamily Housing,213000,1281.9,2577757.2,10669183.8,969,4.5,41.920174,-87.70707,"(41.920174, -87.70707)",49,23
2020,252288,Parkside Terrace,137-143 N Parkside Ave,4.0,Multifamily Housing,85000,9075.0,1134924.5,3688650.2,373,4.4,41.88298,-87.76654,"(41.88298, -87.76654)",7,26
2018,104239,517-25 W. Brompton Ave.,517 525 W BROMPTON AVE,4.0,Multifamily Housing,52304,1281,466290.7,3119450.4,243.3,4.7,41.93985,-87.65845,"(41.93985, -87.65845)",25,57
2020,234897,55 East Erie Condominium Association,55 E Erie St,1.0,Multifamily Housing,799839,5698.6,24009694.4,16689531.2,4059.7,15.2,41.893948,-87.62612,"(41.893948, -87.62612)",36,37
2018,104237,536-552 W. Addison St.,536 552 W ADDISON ST,1.0,Multifamily Housing,62762,4770,1143600,5752269.4,495.8,7.9,41.95402,-87.662025,"(41.95402, -87.662025)",18,57
2016,175473,Ashland Devon Chicago Equities: 6748 North Ashland Avenue,6748 6750 N ASHLAND AVE,53,Multifamily Housing,60000,1825.8,706887.9,4020073.1,344.2,5.7,42.01036,-87.6683,"(42.01036, -87.6683)",5,10
2017,175472,Tower Lofts Condo,3240 N ASHLAND AVE,51,Multifamily Housing,176062,3885.7,7337622,6612467,1707.9,9.7,41.780464,-87.60531,"(41.780464, -87.60531)",1,56
2020,175475,333 S Ashland Ave,333 S Ashland Ave,4.0,Office,68150,4646.2,1163445.7,4503996.7,420.8,6.2,41.868633,-87.627304,"(41.868633, -87.627304)",23,29
2016,104250,544 W. Melrose St.,544  W MELROSE ST,66,Multifamily Housing,50589,7231.1,1015315.7,3406628.1,368.1,7.3,41.93985,-87.65845,"(41.93985, -87.65845)",25,57
2020,175470,1712-20 Albion,1712 1720 W ALBION AVE,3.0,Multifamily Housing,81896,7004.6,645857.4,5533833.5,394.7,4.8,42.01036,-87.6683,"(42.01036, -87.6683)",5,10
2020,156711,20 North Michigan Avenue,20 N Michigan Ave,4.0,Office,214800,6844.1,6828183.3,5701588.5,1368.5,6.4,41.910374,-87.630646,"(41.910374, -87.630646)",36,38
2020,243345,Shoreline Towers CA,6301 N Sheridan Rd,4.0,Multifamily Housing,518308,853.5,5314569.3,32060141.2,2532.3,5.7,41.92075,-87.70153,"(41.92075, -87.70153)",16,76
2016,116215,Bloomingdale Apartments,1745  N KEYSTONE AVE,16,Multifamily Housing,102457,499.0,3962734.3,3411772.3,911.6,8.9,41.920395,-87.756165,"(41.920395, -87.756165)",44,19
2020,165664,DANK Haus German American Cultural Center,4740 N Western Ave,13,Mixed Use Property,61042,3079.4,556057,3000126.4,246.1,4,41.968117,-87.68928,"(41.968117, -87.68928)",24,6
2020,235739,1000 Condominium Association,1000 N Lake Shore Plz,1.0,Multifamily Housing,450036,3881.2,14912027,30158943.1,3929.2,9.8,41.900978,-87.624275,"(41.900978, -87.624275)",36,37
2020,252297,Lyndale Place,2575 W Lyndale,4.0,Multifamily Housing,83620,2686.0,1254582.1,2497386.5,328.4,3.9,41.938915,-87.76808,"(41.938915, -87.76808)",41,23
2021,256653,Diversey Square Associates II,3212 West Diversey Ave,1.0,Multifamily Housing,47292,5179.3,774837.2,4489158.6,349.1,7.4,41.88425,-87.63245,"(41.88425, -87.63245)",36,38
2018,174135,Times Square Apartments,869  W BUENA AVE,3.0,Multifamily Housing,142000,5362,2714194.8,10305964.9,998.9,7,41.95402,-87.662025,"(41.95402, -87.662025)",18,57
2020,234885,3033 Sheridan Tower Condominium Association,3033 N Sheridan Rd,4.0,Multifamily Housing,278604,1377.7,3032520.4,8119250.9,904.5,3.2,41.93741,-87.63908,"(41.93741, -87.63908)",25,57
2017,175462,C074179T (22021),741  E 79TH ST,20,Multifamily Housing,60200,9938.2,1003650,6983983,556.5,9.2,41.87118,-87.62812,"(41.87118, -87.62812)",35,40
2016,106000,HRTL - Harvest Commons: 1519 W Warren Blvd,1519 1525 W WARREN BLVD,36,Multifamily Housing,51628,2166.2,1809209.2,1638341,420.5,8.1,41.993984,-87.81421,"(41.993984, -87.81421)",48,29
2017,233591,Forty East Cedar Condominium,40 E CEDAR ST,75,Multifamily Housing,96895,4430.8,2344194,3271709,607.2,6.3,41.90272,-87.62691,"(41.90272, -87.62691)",11,37
2018,109510,CornellSquareCondo Association,4922 4942 S CORNELL AVE,0.0,Multifamily Housing,72366,6560,31652.1,1150431.1,5.3,0.1,41.840508,-87.6162,"(41.840508, -87.6162)",33,8
2020,254055,Park Douglas Apartments,1235 S Washtenaw,3.5,Multifamily Housing,77900,8620.9,1058975.6,3413809.7,346.6,5.1,41.849297,-87.67088,"(41.849297, -87.67088)",26,33
2020,254050,1400 State Parkway Condominium Association,1400 N State Pkwy,1.0,Multifamily Housing,108000,8020.9,2216288.5,11988194.1,982.6,10.3,41.90384,-87.63668,"(41.90384, -87.63668)",11,37
2020,254045,Archer Place Condo Association,2272 S Archer Ave,4.0,Multifamily Housing,97890,7908.2,1799539.9,1851211.9,379.2,5.4,41.842323,-87.62715,"(41.842323, -87.62715)",9,34
2020,172385,Marillac St. Vincent Family Services,212 S Francisco Ave,2.0,Pre-school/Daycare,104000,5387.4,6890086.4,407414,1097,10.5,41.87772,-87.69919,"(41.87772, -87.69919)",46,28
2018,175891,Lakefront Place Condominium Association,6730   SOUTH SHORE DR,4.0,Multifamily Housing,326440,5168,2499443.5,12757181.5,1093.4,3.3,41.762592,-87.57232,"(41.762592, -87.57232)",33,39
2020,158099,61480 - Galewood 14,5530 W Homer St,2.0,Movie Theater,57976,7479.1,4590304.6,2200340.1,833.3,14.4,41.975525,-87.69722,"(41.975525, -87.69722)",45,26
2016,106017,6900 S. Shore Drive,6900 S SOUTH SHORE DR,71,Multifamily Housing,52604,6241.8,1074162.4,3849488.5,402.5,7.7,41.762592,-87.57232,"(41.762592, -87.57232)",33,39
2015,160399,400 N MCCLURG,400 N McClurg Ct,91,Multifamily Housing,474551,1099.3,15916267,27532037,4660,9.800000000000001,41.89336,-87.63899,"(41.89336, -87.63899)",36,37
2016,106014,Delaware III LLC,211 213 E DELAWARE PL,7,Multifamily Housing,57125,9975.7,2145544.1,1511400.6,475.7,8.3,41.895794,-87.62248,"(41.895794, -87.62248)",11,37
2020,254063,The Lofts at 1800 Condominium Association,1800 W Grace St,1.5,Multifamily Housing,221852,2717.5,3618265.5,6751695.5,923.3,5.1,41.954308,-87.6618,"(41.954308, -87.6618)",25,57
2020,254065,1345 South Wabash Condominium,1345 S Wabash Ave,4.0,Multifamily Housing,205500,9603.5,3122669.4,6985315.8,858.4,4.9,41.84617,-87.627815,"(41.84617, -87.627815)",10,38
2020,160392,1120 N LaSalle Apartments,1120 N LaSalle St,1.5,Multifamily Housing,249845,7686.9,5502272.8,15311203.2,1672,8.2,41.883114,-87.64488,"(41.883114, -87.64488)",46,37
2020,254060,University Village Lofts,1524 S Sangamon St,4.0,Multifamily Housing,296389,8594.9,4954735.6,8388080.4,1218.8,4.8,41.849297,-87.67088,"(41.849297, -87.67088)",26,33
2017,149143,The Residences at 950 West Monroe,950  W MONROE ST,53,Multifamily Housing,123391,7106.1,3934033,6016237,1046.9,8.5,41.873993,-87.65168,"(41.873993, -87.65168)",48,29
2020,119799,Lowes Home Improvement,7971 S CICERO AVE,4.0,Retail Store,115928,4747.3,5926157.5,4581687.2,924.9,8,41.840508,-87.6162,"(41.840508, -87.6162)",30,69
2020,158083,Renaissance Chicago O'Hare Suites Hotel,8500 W Bryn Mawr Ave,4.0,Hotel,314254,4014.9,11951053.5,15065850.2,2665.4,8.5,41.98245,-87.84101,"(41.98245, -87.84101)",29,75
2020,254056,The Montrevelle Condominium Association,520 N Halsted St,1.0,Multifamily Housing,114625,818.9,3630408.9,6451590.8,909.3,8.3,41.89983,-87.65764,"(41.89983, -87.65764)",46,25
2017,254059,Safer Foundation Crossroad Correctional Center,3210 W Arthington St,82,Prison/Incarceration,127263,7791.4,3646718,8692023,1135.9,8.9,41.72019,-87.656715,"(41.72019, -87.656715)",23,27
2018,175400,"740 N. Milwaukee, LLC",740  N MILWAUKEE AVE,4.0,Multifamily Housing,82600,2149.6,1785056,1616155.2,382.8,4.6,41.868633,-87.627304,"(41.868633, -87.627304)",46,25
2020,175882,Supermall,5220 S Pulaski Rd,4.0,Other - Mall,61159,7567.7,3959195.9,15150.5,618.7,10.1,41.680508,-87.66246,"(41.680508, -87.66246)",6,60
2019,104285,528 534 W ALDINE AVE,528 534 W ALDINE AVE,2.0,Multifamily Housing,52400,6225.5,791498.7,3888129.7,338.2,6.5,41.93985,-87.65845,"(41.93985, -87.65845)",25,57
2020,242048,3550 N Lake Shore Drive,3550 N Lake Shore Dr,3.5,Multifamily Housing,775610,4328.9,12392138.3,37711998.2,3937.1,5.8,41.869255,-87.62625,"(41.869255, -87.62625)",39,57
2016,104288,EFA LLC,452  W ALDINE AVE,69,Multifamily Housing,89000,3492.0,1279844.6,4963309.5,499.5,5.6,41.876854,-87.64988,"(41.876854, -87.64988)",25,57
2020,254024,Gateway West Loop Apartments,11 S Green St,1.5,Multifamily Housing,169898,1388.3,5397002.8,5959509,1158.8,8.7,41.874294,-87.65018,"(41.874294, -87.65018)",48,29
2020,254025,Mercy Housing Lakefront?s Englewood Apartments,901 W 63rd St,4.0,Multifamily Housing,62800,3185.4,2109449.3,1299914,398.3,6.3,41.76739,-87.56693,"(41.76739, -87.56693)",4,66
2021,175433,1130 S Wabash Ave,1130 S Wabash Ave,0.0,Office,54215,4384.8,1041364.8,9273555.7,11267.3,24.8,41.868435,-87.62634,"(41.868435, -87.62634)",10,38
2020,173250,Clark Manor Convalescent Center,7427 7433 N CLARK ST,1.0,Senior Living Community,68875,5954.9,4016290.2,10323445.5,1175.1,20,41.840508,-87.6162,"(41.840508, -87.6162)",5,10
2020,164777,Professional Office Building,840 W Irving Park Rd,2.0,Medical Office,51825,2424.4,3855958.5,1326782.8,601.8,11.6,41.954556,-87.65138,"(41.954556, -87.65138)",39,31
2020,254038,Catholic Charities: Porta Coeli Senior Housing,2260 E 99th St,1.0,Multifamily Housing,91577,779.7,2132172.5,4563654.6,575.2,7.3,41.713314,-87.555466,"(41.713314, -87.555466)",47,48
2020,254034,Warren Ashland Place,1609 W Warren Blvd,4.0,Multifamily Housing,93255,9217.9,1301657.5,1364066.8,275.6,3.5,41.881203,-87.68664,"(41.881203, -87.68664)",46,29
2017,254037,Willow Square Condo Association (Bldg 1),1728 N Damen Ave,54,Multifamily Housing,65000,5778.7,2040762,701579,414.6,6.4,41.913174,-87.67767,"(41.913174, -87.67767)",40,25
2016,117115,Post Card Place CA,1733 1735 W IRVING PARK RD,73,Multifamily Housing,92640,4550.9,3091040,2784974.3,717.7,7.7,41.95402,-87.662025,"(41.95402, -87.662025)",18,57
2020,117599,Keller Center,1307  E 60TH ST,4.0,College/University,121453,8298.8,1877050.4,8558332.5,665.6,5.5,41.780464,-87.60531,"(41.780464, -87.60531)",4,9
2020,172393,LEARN Charter School Herro Family Campus,3021 W Carroll Ave,2.5,K-12 School,118704,1339.0,4074522.6,681264,672.1,6.4,41.7398,-87.653496,"(41.7398, -87.653496)",46,28
2020,172394,26 N Halsted St,26 N Halsted St,3.0,Office,57251,8776.3,8297178.7,2062362.9,1404.5,24.5,41.882607,-87.64773,"(41.882607, -87.64773)",46,29
2016,106046,Inn of Chicago,162  E OHIO ST,55,Hotel,180000,182.1,12013358.6,2122200,2327,12.9,41.871033,-87.73349,"(41.871033, -87.73349)",11,37
2017,112724,6119 6125 N Winchester,6119 6125 N WINCHESTER AVE,60,Multifamily Housing,57600,8708.9,1380021,6909000,622.1,10.8,41.88712,-87.656815,"(41.88712, -87.656815)",16,76
2020,254099,Powell Paideia Elementary,7511 S South Shore Dr,4.0,K-12 School,113516,805.6,2969141.6,3172739.9,631.9,5.6,41.816807,-87.60777,"(41.816807, -87.60777)",33,39
2020,254095,5556 North Sheridan Condominium Association,5556 N Sheridan Rd,4.0,Multifamily Housing,146667,7700.2,1412957,3626499.9,413.1,3.8,41.972645,-87.66491,"(41.972645, -87.66491)",18,31
2020,165253,The Chicago Lighthouse,1850  W ROOSEVELT RD,2.0,Other,130000,7103.6,4154621.8,4634292.2,894.6,7.8,41.84915,-87.6709,"(41.84915, -87.6709)",26,33
2017,254094,South Commons - 3041 S Michigan,3041 S Michigan Ave,71,Multifamily Housing,67133,2134.7,1154420,5055102,481.9,7.2,41.84617,-87.627815,"(41.84617, -87.627815)",9,35
2017,102914,89th & Loomis LTD PP,8915  S LOOMIS ST,24,Multifamily Housing,72000,7268.2,1241245,3394932,409.8,5.7,41.740234,-87.65353,"(41.740234, -87.65353)",13,70
2020,117189,Sherway Tower,4225  N SHERIDAN RD,1.0,Multifamily Housing,158600,6220.1,3791918.6,12963433.8,1280.4,8.1,41.95402,-87.662025,"(41.95402, -87.662025)",18,57
2020,117188,Ruth Shriman House,4040  N SHERIDAN RD,3.5,Multifamily Housing,67988,1765.7,760335,4831639.1,375.3,5.5,41.95402,-87.662025,"(41.95402, -87.662025)",18,57
2019,120343,5101 5115 N SHERIDAN RD,5101 5115 N SHERIDAN RD,1.0,Multifamily Housing,209520,6267.2,916650.9,27872524,1632.9,7.8,41.97559,-87.65457,"(41.97559, -87.65457)",16,31
2018,175059,436-446 W. Diversey Pkwy.,436 446 W DIVERSEY PKWY,1.0,Multifamily Housing,68271,2533,2147673.2,3603722.5,548.7,8,41.92385,-87.63654,"(41.92385, -87.63654)",34,68
2017,109549,Lunt Avenue Condominium & Health Club,1327 1337 W LUNT AVE,7,Multifamily Housing,59768,1981.3,530522,4238611,323.2,5.4,41.939693,-87.66901,"(41.939693, -87.66901)",5,10
2020,159807,Horizon Realty Group,5650 N SHERIDAN RD,1.0,Multifamily Housing,149551,7572.4,3171126.4,15901955.6,1339.5,10.6,41.98449,-87.65573,"(41.98449, -87.65573)",16,76
2017,158958,Jackson Park Hospital,7531 S Stony Island Ave,39,Hospital (General Medical & Surgical),382000,9729.5,30801233,50600100,8382.6,21.9,41.75764,-87.585175,"(41.75764, -87.585175)",35,39
2016,106052,"6214 N. Winthrop, LLC",6214 6218 N WINTHROP AVE,17,Multifamily Housing,58321,3871.4,788056,3559707.1,334.3,5.7,41.990902,-87.66661,"(41.990902, -87.66661)",16,76
2017,102926,Wooded Isle Apartments,5736 5752 S STONY ISLAND AVE,71,Multifamily Housing,59558,1403.2,431178,320112,96.7,1.6,41.780464,-87.60531,"(41.780464, -87.60531)",4,9
2016,117179,3318 N Lake Shore - 2017 Resubmit,3318  N LAKE SHORE DR,4,Multifamily Housing,116213,2730.9,1422599.3,1721522.8,263,2.3,41.93985,-87.65845,"(41.93985, -87.65845)",25,57
2020,156782,Chicago Medical Society,515 N Dearborn St,4.0,Office,52284,7018.6,1010278.9,1974705.4,262.6,5,41.89142,-87.62936,"(41.89142, -87.62936)",36,37
2020,134533,645 N Michigan Ave,645 N Michigan Ave,3.0,Office,215871,3372.8,11778472.7,10745673.6,2409,11.2,41.883327,-87.765015,"(41.883327, -87.765015)",36,37
2020,254074,2007 N Sedgwick Condominium Association,2007 N Sedgwick,2.0,Multifamily Housing,57600,6548.1,2160440.7,8531204.4,337.2,6.7,41.906868,-87.73218,"(41.906868, -87.73218)",34,68
2017,254077,South Commons - 3021 S Michigan,3021 S Michigan Ave,65,Multifamily Housing,67133,1552.7,1054540,5370187,480.2,7.2,41.84586,-87.62921,"(41.84586, -87.62921)",9,35
2020,254076,North Water Apartments & Loews Chicago Hotel,340 E North Water St,4.0,Multifamily Housing,932299,1515.8,21505767.1,18065144.3,4315.9,5,41.895786,-87.62247,"(41.895786, -87.62247)",11,37
2020,128292,Dunning Square,6408 - 6450 W Irving Park Rd,1.0,Strip Mall,278429,9005.7,17914569.2,7431552.9,3190.6,24.8,41.92075,-87.70153,"(41.92075, -87.70153)",19,17
2020,254073,Blue Moon Lofts,215 N. Aberdeen St.,4.0,Multifamily Housing,83000,2603.6,1614582.3,825006.6,295.8,3.6,41.874294,-87.65018,"(41.874294, -87.65018)",48,29
2020,166122,"Rudolph, Wilma Elementary Learning Center/ Hope Institute -CPS",1628 W Washington Blvd,4.0,K-12 School,263250,9500.6,4772375,7730980.2,1155.5,4.4,41.88332,-87.667595,"(41.88332, -87.667595)",46,29
2016,172800,5110 S Kenwood,5110  S KENWOOD AVE,3,Multifamily Housing,55932,258.3,880203.9,4960499.8,426.2,7.6,41.92385,-87.63654,"(41.92385, -87.63654)",33,8
2020,254068,Union Lofts Condominium Association,3500 S Sangamon,2.0,Multifamily Housing,80000,9881.9,2828786.9,5392688.9,727.9,9.1,41.811768,-87.65514,"(41.811768, -87.65514)",48,59
2018,256247,63029-Sunrise of Lincoln Park,2710 N. Clark St,1.5,Senior Care Community,50000,2678,2881344.9,4752369.8,731.8,14.6,41.922195,-87.649605,"(41.922195, -87.649605)",34,68
2020,119349,Pete's Pulaski,4343 S Pulaski Rd,1.0,Supermarket/Grocery Store,56000,3065.6,10724709.7,6036287.4,1994.4,35.6,41.813843,-87.72239,"(41.813843, -87.72239)",8,54
2020,256248,The Sinclair,1201 N LaSalle Street,3.0,Multifamily Housing,636834,4590.3,12272034.9,23939038.6,3186.8,5.4,41.90418,-87.63651,"(41.90418, -87.63651)",11,37
2019,119347,2101 S WABASH AVE,2101 S WABASH AVE,0.0,Multifamily Housing,60000,7902.5,6094522.0,5510647.1,27792.4,56.3,41.854088,-87.62512,"(41.854088, -87.62512)",9,34
2016,239704,Renaissance Place at Hyde Park Condominium Association South,1000 E 53RD ST,65,Multifamily Housing,209025,8038.1,3606037,5772163.9,971.3,4.6,41.910374,-87.630646,"(41.910374, -87.630646)",33,8
2020,256263,Fulton West,1330 W. Fulton,4.0,Office,555948,7279.1,13470198.2,6834387.5,2465.3,8,41.87461,-87.6515,"(41.87461, -87.6515)",26,29
2017,106030,Grand Briar CA,433 W BRIAR PL,41,Multifamily Housing,67300,9690.5,1299866,4100614,458.1,6.8,41.93985,-87.65845,"(41.93985, -87.65845)",25,57
2018,147855,170 W Polk,170  W POLK ST,4.0,Multifamily Housing,198033,3166,3644019.4,7396126.1,999.1,5,41.793297,-87.68838,"(41.793297, -87.68838)",10,38
2017,254079,Metro North Condominium Association,3946 N Ravenswood Ave,78,Multifamily Housing,78000,5579.3,1872086,1566394,429.3,5.5,41.954308,-87.6618,"(41.954308, -87.6618)",25,57
2020,100729,Northern Trust - Chicago,801 S Canal St,100,Office,680000,9017.7,1719160.1,851580,313.5,0.5,42.01036,-87.6683,"(42.01036, -87.6683)",26,29
2018,112762,Royalton Condominium Association,6800  N CALIFORNIA AVE,3.5,Multifamily Housing,125600,6082,1617799.8,6981400.4,640,5.1,42.0088,-87.69503,"(42.0088, -87.69503)",27,20
2020,166543,North & Kostner,4501 W North Ave,3.5,Retail Store,161640,6509.8,8882334.1,2403159.8,1513.9,6.4,41.909695,-87.739456,"(41.909695, -87.739456)",45,24
2020,113617,1418 N Lake Shore Dr Condo Association,1418  N LAKE SHORE DR,2.5,Multifamily Housing,105775,910.3,3983046.2,3779712.3,765.3,8,41.90375,-87.63559,"(41.90375, -87.63559)",46,37
2016,174167,The Pattington,660 676 W IRVING PARK RD,93,Multifamily Housing,206933,6118.1,1996275.9,10226244.8,911.1,4.4,41.95402,-87.662025,"(41.95402, -87.662025)",18,57
2018,174164,Madison Park Apartments,1380  E HYDE PARK BLVD,4.0,Multifamily Housing,160000,8665,5368829.8,3445410.8,1076.2,6.7,41.802242,-87.603325,"(41.802242, -87.603325)",33,8
2017,174165,5107 S Blackstone,5107 S. Blackstone Ave,16,Multifamily Housing,83819,3257.7,1467853,9145182,757.1,9,41.802242,-87.60333,"(41.802242, -87.60333)",33,8
2018,175492,Belmont Clark Apartments,3158 3184 N CLARK ST,3.0,Multifamily Housing,75000,2097,713002.2,4879900,377.8,5,41.93985,-87.65845,"(41.93985, -87.65845)",25,57
2020,103816,AMA Plaza,330 N Wabash Av,4.0,Office,1881319,6910.9,84953984.2,41766636.5,18346.7,9.8,41.888638,-87.62752,"(41.888638, -87.62752)",36,37
2020,251860,Ogden Intl HS -CPS,1250 W Erie St,4.0,K-12 School,93355,8804.3,1172516.7,3602199.7,374.3,4,41.885853,-87.77478,"(41.885853, -87.77478)",41,25
2020,174157,The Bridgeport Condominiums,3434 3464 S HALSTED ST,1.0,Multifamily Housing,116813,9746.0,4556367.5,10792083.8,1284.3,13.1,41.84915,-87.6709,"(41.84915, -87.6709)",26,33
2020,103812,400 W Superior St,400 W Superior St,3.0,Office,130007,5621.7,6489281.3,1493523.2,1092.1,8.4,41.99589,-87.78753,"(41.99589, -87.78753)",36,37
2020,251865,"Prieto, Dr Jorge Elementary -CPS",2231 N Central Ave,4.0,K-12 School,115458,2551.0,2593679.4,1700389.8,495.1,4.3,41.921047,-87.76524,"(41.921047, -87.76524)",44,19
2020,251866,Best Practice - CPS; Chicago Bulls College Prep,2040 W Adams St,4.0,K-12 School,142356,2760.0,1776464.6,5942993.2,592.9,5.1,41.879093,-87.67842,"(41.879093, -87.67842)",46,29
2020,251867,Talcott Fine Arts And Museum Academy -CPS,1840 W Ohio St,4.0,K-12 School,127371,5729.2,1535817.9,7713240.2,649.4,5.1,41.892597,-87.67396,"(41.892597, -87.67396)",41,25
2018,106067,4655,4653 4661 S LAKE PARK AVE,0.0,Multifamily Housing,77016,5040,1379768.4,4694264.4,14782.5,13.8,41.937695,-87.72679,"(41.937695, -87.72679)",10,4
2020,132798,8501 W Higgins Rd,8501 W Higgins Rd,4.0,Office,165957,723.2,10176518.4,2176254.1,1588.2,9.6,41.986725,-87.83907,"(41.986725, -87.83907)",29,75
2018,109573,Casa Bonita Condominium Association,7340 7352 N RIDGE BLVD,1.5,Multifamily Housing,110000,3430,3151947.6,3923178.8,732.8,6.7,41.808865,-87.6267,"(41.808865, -87.6267)",27,20
2020,121212,Village Market,333 E Benton PL,3.0,Enclosed Mall,104652,1982.6,2544341.3,8761068.3,862.4,8.2,41.762592,-87.57232,"(41.762592, -87.57232)",36,38
2020,165224,Irish American Heritage Center,4626 N Knox Ave,0.0,K-12 School,190000,1829.6,9532110.6,2142326.9,12946.2,89.5,41.965332,-87.744545,"(41.965332, -87.744545)",38,16
2016,102946,Haven Towers,7947  S SOUTH CHICAGO AVE,31,Multifamily Housing,61000,1185.1,2360716.1,3471117.8,619.5,10.2,41.873993,-87.65168,"(41.873993, -87.65168)",47,44
2017,146965,1610 West Fullerton Condominium Assocation,1610 1620 W FULLERTON AVE,3,Multifamily Housing,52683,5204.4,2130023,1765028,487.6,9.3,41.922012,-87.65462,"(41.922012, -87.65462)",34,68
2018,147816,Clark Glenlake LLC.,6101 6111 N CLARK ST,4.0,Multifamily Housing,53000,1215,830588.3,845526.6,183.1,3.5,41.990902,-87.66661,"(41.990902, -87.66661)",16,76
2020,157599,Dearborn Tower Condominium Association,1530 S State St,4.0,Multifamily Housing,921603,923.0,10659384.5,20518899.8,2753.5,3.7,41.860962,-87.62808,"(41.860962, -87.62808)",9,34
2020,101551,Metropolitan Pier and Exposition Authority,301 Cermak Rd,3.0,Convention Center,9245333,4967.0,374952024.6,346725881.9,76934.8,8.3,41.85284,-87.63493,"(41.85284, -87.63493)",26,35
2018,114866,"Barclay Condominium Home Owners' Association, Inc",4940  S EASTEND AVE,3.0,Multifamily Housing,146840,4492,1531066.8,11655257.5,873.8,6,41.868633,-87.627304,"(41.868633, -87.627304)",33,8
2020,251893,Edgebrook Elementary -CPS,6525 N Hiawatha Ave,4.0,K-12 School,65590,9352.6,1313687.3,2612850.1,343.8,5.2,41.886215,-87.6182,"(41.886215, -87.6182)",29,12
2020,251411,Reavis Specialty Elementary -CPS,834 E 50th St,2.5,K-12 School,57507,5476.3,970075.1,4530380,392,6.8,41.80456,-87.60536,"(41.80456, -87.60536)",10,5
2021,251412,"Goldblatt Elementary, Nathan R -CPS",4255 W Adams,36,K-12 School,57743,1115.8,5961296.4,5913251.9,48697.2,86.5,41.877865,-87.731804,"(41.877865, -87.731804)",23,27
2020,251896,Region 4 Office -CPS,4655 S Dearborn St,2.0,K-12 School,99100,8553.1,2340985.4,7612059.7,769.7,7.8,41.81014,-87.6269,"(41.81014, -87.6269)",9,4
2020,251890,Saucedo Elementary Academy - CPS,2850 W 24th Blvd,4.0,K-12 School,292121,4204.2,3522931.7,8507839.9,1001.7,3.4,41.89336,-87.63899,"(41.89336, -87.63899)",1,32
2020,251892,Betty Shabazz Intl Charter / Barbra A Sizemore -CPS,6936 S Hermitage Ave,2.5,K-12 School,70232,3466.7,1485777.3,4863910.1,490.2,7,41.767475,-87.66798,"(41.767475, -87.66798)",31,65
2020,251417,Chalmers-CPS,2745 W Roosevelt Rd,1.0,K-12 School,68184,6056.0,3033287.8,6247340.2,805.2,11.8,41.866043,-87.695465,"(41.866043, -87.695465)",23,30
2017,113540,One East Schiller Condominium Association,1  E SCHILLER ST,81,Multifamily Housing,161500,7448.5,7078679,1158378,1370.3,8.5,41.90375,-87.63559,"(41.90375, -87.63559)",46,37
2020,251418,Hitch Elementary -CPS,5625 N Mcvicker Ave,3.0,K-12 School,82050,7034.9,3045536.3,1574730,559,6.8,41.82813,-87.624405,"(41.82813, -87.624405)",50,36
2020,251419,"Bronzeville Charter, Hartigan - CPS",8 W Root St,3.5,K-12 School,63929,1914.0,1088752.4,3824910.2,373.1,5.8,41.87963,-87.640396,"(41.87963, -87.640396)",9,4
2016,101545,Reside at 849,849 863 W BUENA AVE,40,Multifamily Housing,61056,3570.0,603204.1,3526900,298.5,4.9,41.95402,-87.662025,"(41.95402, -87.662025)",18,57
2020,251414,Dumas Elementary -CPS,6650 S Ellis Ave,2.0,K-12 School,64558,8755.6,1352484.5,5332929.9,494.3,7.7,41.773743,-87.60123,"(41.773743, -87.60123)",33,9
2017,101547,Mercy Hospital and Medical Center,2525 S Michigan Ave,6,Hospital (General Medical & Surgical),750000,7400.8,75236443,91845498,18789.2,25.1,41.84675,-87.62134,"(41.84675, -87.62134)",10,34
2021,251415,Kohn Elementary -CPS,10414 S State St,27,K-12 School,96800,6616.9,8057794.0,663457.5,46983.7,32.9,41.793755,-87.58322,"(41.793755, -87.58322)",22,45
2020,251899,Shields Main-CPS,4250 S Rockwell St,3.0,K-12 School,128230,6262.1,2854443.3,7295699.6,833,6.5,41.922012,-87.65462,"(41.922012, -87.65462)",3,55
2020,158433,Clinton Street Lofts,226 N Clinton St,3.5,Multifamily Housing,188400,3528.5,4049061.5,5646195.2,906.6,6.5,41.87827,-87.64809,"(41.87827, -87.64809)",36,29
2018,157587,Loretto Hospital,645 S CENTRAL AVE,0.0,Hospital (General Medical & Surgical),231325,10337,17319779.4,44114669.4,5224.5,22.6,41.892445,-87.76498,"(41.892445, -87.76498)",45,26
2020,101560,IL0054ZZ - Clark Fedral Bldg,536 S Clark St,3.0,Office,636217,2490.0,29743740.4,37313760.5,6624,10.4,41.875008,-87.631226,"(41.875008, -87.631226)",10,38
2020,158438,Realtor Building,430 N Michigan Ave,4.0,Office,264980,1550.6,13380740.9,3550421.5,2276.9,8.1,41.890377,-87.62468,"(41.890377, -87.62468)",36,37
2020,251423,Ortiz De Dominguez -CPS,3000 S Lawndale Ave,4.0,K-12 School,63900,7616.2,2334985.1,9363617.1,364.4,5.7,41.838238,-87.71771,"(41.838238, -87.71771)",28,32
2018,114861,The Narragansett Condominium Inc,1640  E 50TH ST,2.5,Multifamily Housing,147000,3016,1207370.3,13844946.6,936.2,6.4,41.802242,-87.603325,"(41.802242, -87.603325)",33,8
2020,120299,8516-Bucktown,2112 N ASHLAND AVE,4.0,Supermarket/Grocery Store,80033,479.9,10980155.7,7130183.1,2092.4,26.1,41.853783,-87.66645,"(41.853783, -87.66645)",26,33
2016,103731,900 W Fullerton Condo,900  W FULLERTON AVE,19,Multifamily Housing,52500,4973.2,880149.3,2768564.9,309.3,5.9,41.922012,-87.65462,"(41.922012, -87.65462)",34,68
2021,251428,"Henson Elementary, Matthew A -CPS",1326 S Avers Ave,29,K-12 School,64300,4390.3,449081.8,9443969.9,9576.3,9.8,41.863777,-87.72184,"(41.863777, -87.72184)",14,30
2020,103733,International Tower,8550 W Bryn Mawr Ave,4.0,Office,433339,2642.0,12172067.6,17370620,2822.3,9.1,41.887623,-87.67442,"(41.887623, -87.67442)",29,75
2020,101557,Atlas 2 E 8th St,2 E 8th St,1.0,Multifamily Housing,340887,2020.5,10027810.5,22437698.5,2756.8,10.4,41.871826,-87.627235,"(41.871826, -87.627235)",10,38
2020,251426,"Haley Elementary, Alex -CPS",11411 S Eggleston Ave,3.0,K-12 School,101294,8612.6,2744743,4643990.3,675,6.7,41.686386,-87.63336,"(41.686386, -87.63336)",22,45
2020,101559,IL0303ZZ - Metcalf Federal Bldg,77 W Jackson,4.0,Office,868473,7408.3,31159545,7758022.5,4863,5.9,41.877556,-87.63042,"(41.877556, -87.63042)",10,38
2020,159315,1401 S State St,1401 S State St,4.0,Multifamily Housing,354598,2848.1,8979221,2845600,1552.5,5.4,41.86368,-87.626915,"(41.86368, -87.626915)",9,34
2020,160304,The Tides at Lakeshore East,360 E South Water St,2.0,Multifamily Housing,615718,2110.5,13922609.3,30171568.4,3775.4,7.8,41.886734,-87.61817,"(41.886734, -87.61817)",36,38
2020,160300,750 N. Rush,750 N Rush St,4.0,Multifamily Housing,355000,6085.6,7828605.5,16436725.2,2094.8,6.4,41.89632,-87.62554,"(41.89632, -87.62554)",36,37
2020,101527,Sankofa House,4041  W ROOSEVELT RD,4.0,Multifamily Housing,67988,7206.6,981318.5,3492299,338.6,5,41.880825,-87.72328,"(41.880825, -87.72328)",23,27
2018,173617,105 W Madison,105 W MADISON ST,2.0,Office,140000,2858,8713292.6,6545099.8,1797.2,12.8,41.881954,-87.63114,"(41.881954, -87.63114)",36,38
2020,251874,"Stagg Elementary, Amos A -CPS",7424 S Morgan St,4.0,K-12 School,68227,4578.9,881382.2,3205460,307.8,4.5,41.759007,-87.64938,"(41.759007, -87.64938)",31,66
2017,172765,The Oaks,820  S PARK TER,85,Multifamily Housing,157844,6518.8,3120206,10525900,1136,7.2,41.868633,-87.627304,"(41.868633, -87.627304)",10,38
2020,158472,Metropolis Condominium Association,8 W Monroe St,1.5,Multifamily Housing,258704,5205.4,8202380.6,8890415.4,1752.4,8,41.88096,-87.6278,"(41.88096, -87.6278)",36,38
2017,100674,The Lofts at Arthington,3301 W Arthington St,26,Multifamily Housing,228897,6070.4,2564975,8642221,933.3,4.1,41.870007,-87.70832,"(41.870007, -87.70832)",14,30
2020,159323,Minnie Ripperton Apts,4250 S Princeton Ave,3.5,Multifamily Housing,211036,1783.5,4193463.9,12032210,1293.6,6.1,41.816742,-87.634705,"(41.816742, -87.634705)",9,3
2017,102854,Hyde Park West Apartments,5325  S COTTAGE GROVE AVE,84,Multifamily Housing,146499,6445.7,2479422,16890847,1355.6,9.3,41.802242,-87.603325,"(41.802242, -87.603325)",33,8
2020,251878,South Loop -CPS,1212 S Plymouth Ct,1.0,K-12 School,57995,6074.7,4309747.1,2457310.2,803.1,13.8,41.866726,-87.62901,"(41.866726, -87.62901)",9,34
2017,159302,Montclare Senior Residences Phase I and Montclare Senior Residences Phase II,6640 50 W Belden Ave,41,Multifamily Housing,294290,513.2,6128846,15611749,1962.4,6.7,41.94929,-87.64692,"(41.94929, -87.64692)",7,18
2016,148673,Teresa Roldan Apartment on Paseo Boricua,1154  N CAMPBELL,25,Multifamily Housing,52240,3793.6,1750234.9,3136362.6,482.6,9.2,41.921024,-87.691376,"(41.921024, -87.691376)",11,25
2020,113507,LaSalle Terrace Condominium Association,1540 N LaSalle St,2.5,Multifamily Housing,166700,1725.4,4079885.6,8584849.7,1092.7,7.2,41.90375,-87.63559,"(41.90375, -87.63559)",46,37
2020,103716,The Palmer House Hotel,17 E Monroe St,4.0,Hotel,1749427,1007.2,36891526.2,103199234.9,11167.8,6.6,41.88032,-87.62695,"(41.88032, -87.62695)",36,38
2020,251884,Ray Elementary -CPS,5631 S Kimbark Ave,3.0,K-12 School,115306,1619.2,1675490.7,8288440.4,701.7,6.1,41.792316,-87.594406,"(41.792316, -87.594406)",33,8
2020,251880,Tonti -CPS,5815 S Homan Ave,2.5,K-12 School,89103,8262.2,2695744.7,4398410,654.3,7.3,41.787407,-87.70774,"(41.787407, -87.70774)",6,61
2020,138874,Midtown Athletic Club,2020 W Fullerton Ave,2.0,Fitness Center/Health Club/Gym,208000,2371.2,18013436.5,9268100.2,3303.6,15.9,41.925434,-87.679146,"(41.925434, -87.679146)",40,23
2020,251407,Agassiz Elementary -CPS,2851 N Seminary Ave,1.0,K-12 School,57743,8263.0,1447055.4,8156259.8,659.1,11.4,41.93398,-87.65583,"(41.93398, -87.65583)",25,57
2020,136212,1155 E 60th St,1155 E 60th St,4.0,College/University,185815,1912.7,6855624.3,6154428.4,1375.4,7.4,41.845505,-87.630554,"(41.845505, -87.630554)",4,9
2020,251408,Clissold Elementary -CPS,2330 W 110th Pl,3.0,K-12 School,63257,5462.8,1366837.9,3532610.3,401,6.3,41.692986,-87.67978,"(41.692986, -87.67978)",42,74
2020,159312,2101 South Michigan Apartments,2101 S Michigan Ave,4.0,Multifamily Housing,204401,6079.9,2488893.8,16725700.1,1276.8,6.2,41.853767,-87.62338,"(41.853767, -87.62338)",9,34
2021,251402,Dett -CPS,2306 W Maypole Ave,13,K-12 School,61600,8109.4,8775128.9,7870396.9,32570.1,32.8,41.88416,-87.684784,"(41.88416, -87.684784)",46,29
2021,251886,Ross Elementary (Cockrell Cpc) -CPS,6059 S Wabash Ave,37,K-12 School,94200,8363.6,8099164.2,9484910.5,14052.2,89.3,41.784393,-87.62378,"(41.784393, -87.62378)",4,7
2020,159311,(ILCH1212) - Park Michigan [external],1212 S Michigan Ave,1.0,Multifamily Housing,313446,7088.5,17573117.4,4442990.5,2978.6,12.5,41.866882,-87.62464,"(41.866882, -87.62464)",9,34
2020,161628,Inter- American Magnet -CPS,851 W Waveland Ave,4.0,K-12 School,110443,8587.8,1304072.7,4728819.9,454.7,4.1,41.9485,-87.65141,"(41.9485, -87.65141)",25,57
2020,251887,Stem Magnet Academy / Old Thomas Jefferson -CPS,1522 W Fillmore Blvd,3.0,K-12 School,69329,3432.0,1006224.7,4925320.1,418.6,6,41.868713,-87.66486,"(41.868713, -87.66486)",23,29
2017,101537,4532 - 42 S. Drexel,4532 4542 S DREXEL BLVD,30,Multifamily Housing,62469,9629.4,2492159,1587017,545.1,8.7,41.72019,-87.656715,"(41.72019, -87.656715)",10,4
2020,251889,Smyser -CPS,4310 N Melvina Ave,4.0,K-12 School,78111,3205.3,1313825.7,3965590.1,415.7,5.3,41.95925,-87.78262,"(41.95925, -87.78262)",19,15
2020,158402,W CHICAGO - CITY CENTER,172 W Adams St,3.0,Hotel,243373,1426.4,9922696,20133321.3,2618,10.8,41.879913,-87.633224,"(41.879913, -87.633224)",36,38
2020,158403,IIT-Stuart School of Business,565 W Adams St,4.0,College/University,284000,5124.3,12920537.1,81509.4,2020.8,7.1,41.878975,-87.64212,"(41.878975, -87.64212)",36,29
2017,101592,5452 S Ellis,5452 5466 S ELLIS AVE,92,Multifamily Housing,51368,7919.7,264928,2944825,205.4,4,41.802242,-87.603325,"(41.802242, -87.603325)",33,8
2020,159738,4100 Marine Dr,4100 N Marine Dr,4.0,Multifamily Housing,286170,7711.4,7396936.5,6553062.4,1502.5,6,41.955887,-87.64627,"(41.955887, -87.64627)",39,31
2020,159736,United Winthrop Tower Cooperative,4848 N Winthrop Ave,1.5,Multifamily Housing,260000,5628.8,5249587.4,25500289.8,2173.7,8.7,41.97071,-87.657974,"(41.97071, -87.657974)",39,31
2020,129920,The Thompson Building,350 N Clark St,3.0,Office,111033,1520.5,7225141.7,2576000.1,1264.4,11.4,41.87781,-87.65493,"(41.87781, -87.65493)",36,37
2020,158405,250 S Wacker Dr,250 S Wacker Dr,3.5,Office,262214,5379.7,8307640,7346790.6,1686.8,6.7,41.878437,-87.637276,"(41.878437, -87.637276)",36,38
2020,159735,Sheridan Plaza Apartments,4601 4613 N SHERIDAN RD,3.0,Multifamily Housing,165792,173.5,5621909.4,4990184,1142.5,7.4,41.87373,-87.62548,"(41.87373, -87.62548)",39,31
2016,115754,Urban Van Buren LP,1504  W VAN BUREN ST,23,Multifamily Housing,51859,2057.9,2266298.2,4950450,680.7,13.1,41.90578,-87.66365,"(41.90578, -87.66365)",48,29
2020,159739,Ella Flagg Young Apartments,4645 N Sherdian Rd,4.0,Multifamily Housing,299019,181.7,2382828.2,12369900.4,1028.9,3.4,41.966652,-87.65417,"(41.966652, -87.65417)",39,31
2020,238480,5455 Edgewater Plaza Condominium Association,5455 N Sheridan Rd,1.5,Multifamily Housing,580512,8776.4,11107430.2,39228575.4,3817.1,7.1,41.981625,-87.6545,"(41.981625, -87.6545)",16,76
2020,250120,S2-Sinai; Schwab Rehab Institute,1401 S California Ave,4.0,Hospital (General Medical & Surgical),177380,3658.7,9207447.4,5359001.3,1721.6,9.7,42.01036,-87.6683,"(42.01036, -87.6683)",23,30
2020,252301,1934 N Washtenaw Condominium Association,1934 N Washtenaw Ave,4.0,Multifamily Housing,122864,6754.3,1939674.2,2415054,431,5.1,41.91657,-87.69476,"(41.91657, -87.69476)",41,23
2020,172703,Rickover Academy,5700 W BERTEAU AVE,4.0,K-12 School,117000,6536.4,1047104.9,3995489.7,375.6,3.2,41.95739,-87.770676,"(41.95739, -87.770676)",19,15
2017,252302,Eastwood Garden Limited Partnership,6531 S. Lowe Ave.,66,Multifamily Housing,206820,9390.0,3576626,12430976,1321.6,6.4,41.98245,-87.84101,"(41.98245, -87.84101)",4,66
2020,251450,Caldwell Math & Science -CPS,8540 S Cregier,2.0,K-12 School,64483,8647.0,2611495.3,2483920.1,539.5,8.4,42.006603,-87.66729,"(42.006603, -87.66729)",35,41
2020,251451,Madero Middle -CPS,3202 W 28th St,2.0,K-12 School,62071,8097.3,2363458.7,3809910,571.2,9.2,41.840908,-87.70508,"(41.840908, -87.70508)",28,32
2020,251452,Manierre Elementary -CPS,1420 N Hudson Ave,3.0,K-12 School,87876,5984.0,2070600.2,4094510.3,540.6,6.2,41.90776,-87.64006,"(41.90776, -87.64006)",46,37
2020,250129,300 North LaSalle,300 N LaSalle St,4.0,Office,1587805,4541.1,68420872.1,3463981.1,10862.4,7.2,41.845505,-87.630554,"(41.845505, -87.630554)",36,37
2020,252309,Natalie Salmon House,7320 N Sheridan Rd,4.0,Multifamily Housing,51000,5765.7,986501.4,1891810.1,254.4,5,42.014538,-87.66446,"(42.014538, -87.66446)",5,10
2020,100256,Curie Metropolitan HS -CPS,4975 S Archer Ave,2.5,K-12 School,415577,2487.8,18855019.1,9819320.3,3464.2,8.3,41.75392,-87.601974,"(41.75392, -87.601974)",8,54
2020,103766,640 N LaSalle Dr,640 N LaSalle St,4.0,Office,329845,284.7,16202311.9,2245160.3,2647.9,9.4,41.893616,-87.63342,"(41.893616, -87.63342)",36,37
2020,251459,Casals Elementary -CPS,3501 W Potomac Ave,2.5,K-12 School,66550,6265.3,2136801.9,2897989.8,487.4,7.3,41.90419,-87.71413,"(41.90419, -87.71413)",49,24
2017,158873,Cloisters,5801 5811 S DORCHESTER AVE,59,Multifamily Housing,191459,3572.3,1766057,15262976,1137.2,5.9,41.78926,-87.591194,"(41.78926, -87.591194)",33,8
2020,242510,The Residences at Joffrey Tower Condo Association,8 E Randolph St,1.0,Multifamily Housing,440398,1715.9,11292143.5,24059039.1,3608.8,8.8,41.88447,-87.627625,"(41.88447, -87.627625)",36,38
2020,103782,Warwick Allerton Hotel Chicago,136 148 E Huron St,4.0,Hotel,300000,2325.8,6730549,12052900.1,1690.6,5.6,42.006603,-87.66729,"(42.006603, -87.66729)",36,37
2020,159729,820 W Belle Plaine Apartments,820 W Belle Plaine Ave,1.5,Multifamily Housing,291260,6802.2,4851768.6,21375581.2,1892.6,8,41.759693,-87.67628,"(41.759693, -87.67628)",39,31
2020,251470,Dett,2101 W Monroe,3.0,K-12 School,70600,716.5,1412518.4,4165479.8,441.7,6.3,41.87995,-87.67917,"(41.87995, -87.67917)",46,29
2020,250132,Yards Forman Mills,4520 S Damen Ave,3.5,Retail Store,52875,9727.8,1800232.7,1911341.8,382.5,7.2,41.809395,-87.675,"(41.809395, -87.675)",1,59
2020,251465,"Coonley, John C -CPS",4046 N Leavitt St,2.0,K-12 School,72304,6123.2,2087283.9,4167869.8,547.1,7.6,41.95544,-87.684006,"(41.95544, -87.684006)",18,46
2018,254975,Sedgwick at Locust,367 W LOCUST ST,3.0,Multifamily Housing,91500,1686,1790051.2,4271033,524.7,5.7,41.89883,-87.638084,"(41.89883, -87.638084)",46,37
2016,251460,GarfieldPark-CPS,2651 W Washington Blvd,68,Office,77000,518.4,3177585.4,4584108.5,585.7,7.6,41.882915,-87.69279,"(41.882915, -87.69279)",46,28
2018,125543,Lincoln Village 1,6103 N LINCOLN AVE,2.0,Strip Mall,54435,5073,3842546.6,2430799.6,768.4,14.1,41.87118,-87.62812,"(41.87118, -87.62812)",27,13
2020,250134,Central Standard Building,231 S LaSalle St,4.0,Office,1178147,3662.1,33974897.5,21658142.1,7877.2,6.7,41.87868,-87.63229,"(41.87868, -87.63229)",36,38
2016,252310,917 W Eastwood,917 W Eastwood Ave,59,Multifamily Housing,75600,2818.2,1027010,5021340.2,456,6,41.868633,-87.627304,"(41.868633, -87.627304)",39,31
2020,250139,Domestic Violence Courthouse,555 W Harrison St,4.0,Courthouse,187268,9667.4,7493403.6,5987769.9,1487.5,7.9,41.886215,-87.6182,"(41.886215, -87.6182)",26,29
2020,250137,Club Quarters,75 E Wacker Dr,4.0,Hotel,178845,1935.8,5391815.7,5283899.9,1122.2,6.3,41.885853,-87.77478,"(41.885853, -87.77478)",36,38
2020,254978,The Park at Wrigley,1101 W WAVELAND AVE,1.0,Office,247887,3487.2,38586920.3,3222530.9,6193.4,25,41.948948,-87.65701,"(41.948948, -87.65701)",25,57
2016,103778,WEISS MEMORIAL HOSPITAL,4646 N Marine Dr,50,Hospital (General Medical & Surgical),412000,898.0,38837124.1,85150431.4,11681.3,28.4,41.96683,-87.64962,"(41.96683, -87.64962)",39,31
2020,251469,Mahalia Jackson Elementary -CPS,917 W 88th St,1.0,K-12 School,74586,1129.4,5092823.6,9043280.7,794.8,10.7,41.73386,-87.64687,"(41.73386, -87.64687)",13,70
2018,252318,The Broadmoor Apartments,7600 N Bosworth,4.0,Multifamily Housing,130365,427,1943956.3,5434843.8,612.1,4.7,42.01945,-87.66951,"(42.01945, -87.66951)",5,10
2020,132278,605 N Michigan Ave,605 N Michigan Ave,3.0,Mixed Use Property,82405,3698.3,6008003,9880065.6,937.7,11.4,41.892773,-87.624146,"(41.892773, -87.624146)",36,37
2017,158424,Virgin Hotel Chicago,203 209 N WABASH AVE,96,Hotel,198000,4907.9,8117056,15058445,2150.2,10.9,41.886196,-87.62593,"(41.886196, -87.62593)",36,38
2020,158422,"600 Fulton Owner, LLC",600 W Fulton St,3.5,Office,236216,2327.6,14402676.4,5443105.9,2247.8,9.5,41.809326,-87.59248,"(41.809326, -87.59248)",36,29
2020,251431,Kanoon Magnet Elementary -CPS,2233 S Kedzie Ave,2.0,K-12 School,67900,1828.4,3486605.9,3441546.6,544.2,8,41.850464,-87.704605,"(41.850464, -87.704605)",1,32
2020,251432,"Brown Elementary, William H -CPS",54 N Hermitage Ave,4.0,K-12 School,63290,6224.1,1448587.4,2272659.9,346.8,5.5,41.882988,-87.67118,"(41.882988, -87.67118)",46,29
2020,251434,Nicholson Math And Science Elementary - CPS,6006 S Peoria St,3.5,K-12 School,71602,9744.3,1151279.6,4256559.9,405.8,5.7,41.78449,-87.64768,"(41.78449, -87.64768)",2,66
2020,171878,Josephinum Academy,1501 N Oakley Blvd,4.0,K-12 School,85000,8593.4,311177.2,4868622.5,307.2,3.6,41.908768,-87.68434,"(41.908768, -87.68434)",41,25
2020,250102,Maria Diaz Martinez Apts,2111 N Halsted St,4.0,Multifamily Housing,133953,1041.8,1711315.9,7288519.9,654.2,5.3,41.92027,-87.64782,"(41.92027, -87.64782)",34,68
2020,250107,Mayor Robert H Lawrence Apts,655 W 65th St,4.0,Multifamily Housing,158732,4723.7,3347578.1,7914480.5,942.8,5.9,41.775497,-87.64186,"(41.775497, -87.64186)",4,66
2020,251439,Bennett Elementary -CPS,10115 S Prairie Ave,4.0,K-12 School,67595,4308.9,734804.1,2680370.1,257,3.8,41.710358,-87.617035,"(41.710358, -87.617035)",43,45
2020,250106,Maudele Brown Bousfield Apts,4945 S Cottage Grove Ave,4.0,Multifamily Housing,67320,6792.3,1370197.8,5858369.9,525,7.8,41.89217,-87.63413,"(41.89217, -87.63413)",10,5
2020,101567,The Monadnock Building,53 W Jackson Blvd,4.0,Office,496749,5578.6,5455092.3,11754606.5,1475.7,3,41.877525,-87.629555,"(41.877525, -87.629555)",10,38
2016,157100,1601 W Division LLC,1611  W DIVISION ST,48,Multifamily Housing,108887,9399.2,2163910.5,3240967,571,5.2,41.902252,-87.68448,"(41.902252, -87.68448)",11,25
2017,158431,600 North Michigan Avenue,600 N MICHIGAN AVE,89,Retail Store,209374,2955.5,34969827,15333160,7280.2,34.8,41.920395,-87.756165,"(41.920395, -87.756165)",36,37
2020,103748,NMH Olson Pavilion,710 N Fairbanks Ct,3.0,Laboratory,362800,9057.9,18090612.5,33184150.2,4586,24.6,41.89531,-87.62036,"(41.89531, -87.62036)",36,37
2020,250109,Vivian Gordon Harsh Apts,4227 S Oakenwald Ave,2.0,Multifamily Housing,102424,6691.7,2061363.2,9531989.6,828,8.1,41.817524,-87.59734,"(41.817524, -87.59734)",10,2
2020,251437,Spry Community Elementary -CPS,2400 S Marshall Blvd,4.0,K-12 School,106010,7129.0,1716532.7,3497550.1,453.7,4.3,41.847633,-87.699814,"(41.847633, -87.699814)",1,32
2020,250108,Vivian Carter Apts,6401 S Yale Ave,4.0,Multifamily Housing,150136,5147.3,3346772.8,9734000.1,1039.3,6.9,41.777767,-87.631355,"(41.777767, -87.631355)",4,66
2020,251438,"Stockton Specialty, Joseph -CPS",4420 N Beacon St,3.5,K-12 School,112070,3809.5,2777711,3871190.1,639.1,5.7,41.7398,-87.653496,"(41.7398, -87.653496)",39,31
2020,135316,Belhaven Nursing & Rehab Center,11401 S OAKLEY AVE,1.0,Senior Living Community,100866,8963.5,3688367.1,11865380.6,1205.9,17.3,41.89029,-87.61816,"(41.89029, -87.61816)",42,71
2020,159745,Clarendon Court Apartments,4500 N CLARENDON AVE,2.5,Multifamily Housing,110000,7173.8,3626117.7,6090581.2,889.4,8.1,41.96394,-87.65039,"(41.96394, -87.65039)",39,31
2020,158414,Old Republic Building,301 - 317 N Michigan Ave,4.0,Office,219636,6905.5,6666117.4,9502799.8,1545.1,7,41.963963,-87.65181,"(41.963963, -87.65181)",36,38
2020,158412,AC Hotel Chicago Downtown,630 N Rush St,36,Mixed Use Property,371717,6353.0,9286234.2,4979858.6,39867.0,26.7,41.893604,-87.62638,"(41.893604, -87.62638)",36,37
2016,112698,(IL567) - 6300 Sheridan,6300 6326 N SHERIDAN RD,100,Multifamily Housing,126456,6106.6,1764171.2,11160827.9,918,7.3,41.990902,-87.66661,"(41.990902, -87.66661)",16,76
2020,103761,20 W Kinzie St,20 W Kinzie St,4.0,Office,393838,8506.4,18697561.9,4262942.1,2918.1,7.4,41.88927,-87.62876,"(41.88927, -87.62876)",36,37
2017,114874,4900 Drexel Cooperative,4900 4918 S DREXEL BLVD,5,Multifamily Housing,90000,3131.7,314027,7134500,437,4.9,41.94662,-87.70269,"(41.94662, -87.70269)",33,8
2017,172719,Conservancy at North Park Condo Assoc III,3940  W BRYN MAWR AVE,87,Multifamily Housing,54096,1603.7,847176,2426798,285.5,5.3,41.802303,-87.6025,"(41.802303, -87.6025)",27,20
2020,105938,Harper Court,5235 S Harper Ct,2.0,Office,431390,7296.0,15060339.3,6316790.8,2686,11.6,41.80012,-87.58905,"(41.80012, -87.58905)",10,8
2020,251444,Gompers Fine Arts Option Elementary - CPS,12302 S State St,4.0,K-12 School,75744,8101.6,1531537.6,3129320,405.2,5.4,41.670017,-87.623184,"(41.670017, -87.623184)",43,50
2020,251445,Lara Academy- CPS,4619 S Wolcott Ave,3.0,K-12 School,67964,2694.1,2069995.6,2293810,444.9,6.5,41.780464,-87.60531,"(41.780464, -87.60531)",3,59
2020,250114,Zelda Ormes Senior Apartments,116 W Elm St,4.0,Multifamily Housing,169050,2817.8,3152404.8,10420030.1,1045.5,6.6,41.903164,-87.63183,"(41.903164, -87.63183)",46,37
2020,250112,William C Jones Apts,1447 S Ashland Ave,3.0,Multifamily Housing,65291,8630.7,1375725.2,7626540,619.8,9.6,41.97223,-87.6646,"(41.97223, -87.6646)",23,29
2017,172711,242-Senior Suites Chicago Wright Campus,4245  N OAK PARK AVE,43,Senior Care Community,54800,2745.3,957005,1873700,276.5,5,41.90375,-87.63559,"(41.90375, -87.63559)",19,17
2020,250118,Norwegian American Hospital,1044 N Francisco Ave,2.5,Hospital (General Medical & Surgical),312898,7324.7,34488939.2,28632579.5,6903.5,22.1,41.96422,-87.66098,"(41.96422, -87.66098)",49,25
2020,250115,City Hall,121 N LaSalle St,2.5,Office,411500,9817.3,23034484.3,36753220.5,5547.1,13.5,41.883854,-87.63168,"(41.883854, -87.63168)",36,38
2020,251446,Randolph Elementary -CPS,7316 S Hoyne Ave,2.0,K-12 School,78450,3550.2,3815329.7,2557690,731.3,9.3,41.885853,-87.77478,"(41.885853, -87.77478)",31,65
2020,251447,Foster Park Elementary -CPS,8500 S Wood,2.0,K-12 School,68005,1307.5,2688278.2,1924759.9,521.8,7.7,41.800785,-87.590485,"(41.800785, -87.590485)",13,70
2020,103759,Headquarters,547 W Jackson Blvd,3.5,Office,347691,7069.7,19103214.7,6528273.8,3328.2,9.6,41.878002,-87.64147,"(41.878002, -87.64147)",36,29
2020,251448,Providence Englewood Bunche Elementary Charter,6515 S Ashland Ave,2.5,K-12 School,70436,5922.1,2385615.6,1301891.3,441.5,8.2,41.775192,-87.66368,"(41.775192, -87.66368)",2,65
2020,251449,Libby Elementary -CPS,5300 S Loomis Blvd,3.5,K-12 School,115600,6288.3,3256093.7,2674650.1,650.2,5.6,41.797367,-87.66015,"(41.797367, -87.66015)",4,59
2017,238049,740 Fulton Condominium Association,740 W FULTON ST,32,Multifamily Housing,164230,2558.6,5461745,9551860,1517.2,9.2,41.887196,-87.647224,"(41.887196, -87.647224)",36,29
2020,160369,Jackson Park Terrace,6040 S HARPER AVE,4.0,Multifamily Housing,132000,2368.9,1278432,11845159.5,828.7,6.3,41.86412,-87.639885,"(41.86412, -87.639885)",33,9
2020,160368,River Bank Lofts Condominium Association,550 N Kingsbury St,4.0,Multifamily Housing,291927,2620.7,4138537.9,6474675.4,989.8,3.8,41.891983,-87.640755,"(41.891983, -87.640755)",36,37
2020,250171,The Heritage at Millennium Park,130 N Garland Ct,2.5,Multifamily Housing,1173350,6981.2,43859399.6,12940835.6,7532.5,8.1,41.895477,-87.660355,"(41.895477, -87.660355)",36,38
2020,251497,Burke Elementary -CPS,5356 S King Dr,2.5,K-12 School,73963,5755.8,1066597.1,6267650.3,499.4,6.8,41.789566,-87.58709,"(41.789566, -87.58709)",9,7
2016,175858,HRTL - Leland Apts: 1207 W Leland Ave,1201 1213 W LELAND AVE,37,Multifamily Housing,74913,2153.8,2171100.6,3523799.1,587.3,7.8,41.97223,-87.6646,"(41.97223, -87.6646)",18,31
2020,251499,Jahn World Language -CPS,3149 N Wolcott Ave,4.0,K-12 School,83029,5784.1,1100525,4174640,393.5,4.7,41.868633,-87.627304,"(41.868633, -87.627304)",40,46
2020,118831,10725-Bucktown,2140 N Elston Ave,4.0,Retail Store,130345,9029.2,2907102.4,263800,467.7,3.6,41.879112,-87.646515,"(41.879112, -87.646515)",40,23
2020,127778,Ridge Place Apartments,7115 7129 N RIDGE BLVD,3.0,Multifamily Housing,51524,4375.2,554477.2,3139199.8,253.3,4.9,42.01182,-87.68266,"(42.01182, -87.68266)",5,10
2020,172347,River West Lofts,925 W HURON ST,2.5,Multifamily Housing,177000,2184.5,4297414.1,9808200.3,1191.7,6.7,41.89983,-87.65764,"(41.89983, -87.65764)",46,25
2018,105989,C5501WAS (25112),5501 5511 W WASHINGTON BLVD,3.5,Multifamily Housing,118890,3894,1746758,9003361.1,768.8,6.5,41.880394,-87.75827,"(41.880394, -87.75827)",23,26
2020,161204,Illinois College of Optometry,3241 S Michigan Ave,4.0,College/University,451568,2965.8,10139126.7,8217049.8,2018.9,6.1,41.88696,-87.623055,"(41.88696, -87.623055)",9,1
2020,250176,Aviation Administration Building,10510 W Zemke Rd,1.5,Office,387041,3734.6,10133198,5532920.1,1875.4,11.3,41.970306,-87.65058,"(41.970306, -87.65058)",29,75
2020,254536,Optima Signature Apartments,220 E Illinois St,4.0,Multifamily Housing,872200,3217.9,18994388.8,14847770,3753.1,4.3,41.921024,-87.691376,"(41.921024, -87.691376)",36,37
2020,254535,Niche 905,905 N Orleans St,1.0,Multifamily Housing,241717,765.8,7623274.6,7367579.3,1581.1,8.9,41.90412,-87.631424,"(41.90412, -87.631424)",11,37
2018,102487,Pine Grove Apartments,3639 3649 N PINE GROVE AVE,2.0,Multifamily Housing,100338,6865,2079921.1,9887356.7,871.2,8.7,41.95402,-87.662025,"(41.95402, -87.662025)",18,57
2020,254539,Glen Lake 1 Condo Assoc.,6400 W Berteau,4.0,Multifamily Housing,517756,419.7,5738718.1,22377059.4,2084.2,4.8,41.77034,-87.63724,"(41.77034, -87.63724)",44,17
2020,160388,EnV Chicago,161 W Kinzie St,3.0,Multifamily Housing,462099,4914.7,11385792,9560400,2284.8,5.8,41.888847,-87.63364,"(41.888847, -87.63364)",36,37
2017,103310,Marshall Field Garden Apartment Homes,1336 1352 N SEDGWICK ST,40,Multifamily Housing,583000,141.6,6096674,30842192,2765.4,4.7,41.972683,-87.65495,"(41.972683, -87.65495)",46,37
